gcid,levelid,longitude,latitude,chinese_name,english_name,code1,code2,code3,code4,code5,alias1,alias2,alias3,alias4,alias5,area,population,owner,continentid,countryid,provinceid,cityid,countyid,townid,villageid,buildingid,comments
2001,6,116.410117,39.926952,东城区,,110101,010,110101000000,,,东城,,,,,,,1201,2,100,1000,1201,2001,,,,
2002,6,116.359655,39.910912,西城区,,110102,010,110102000000,,,西城,,,,,,,1201,2,100,1000,1201,2002,,,,
2003,6,116.595352,39.947533,朝阳区,,110105,010,110105000000,,,朝阳,,,,,,,1201,2,100,1000,1201,2003,,,,
2004,6,116.281103,39.857188,丰台区,,110106,010,110106000000,,,丰台,,,,,,,1201,2,100,1000,1201,2004,,,,
2005,6,116.216927,39.905382,石景山区,,110107,010,110107000000,,,石景山,,,,,,,1201,2,100,1000,1201,2005,,,,
2006,6,116.323374,39.970817,海淀区,,110108,010,110108000000,,,海淀,,,,,,,1201,2,100,1000,1201,2006,,,,
2007,6,116.095682,39.939248,门头沟区,,110109,010,110109000000,,,门头沟,,,,,,,1201,2,100,1000,1201,2007,,,,
2008,6,116.137033,39.747797,房山区,,110111,010,110111000000,,,房山,,,,,,,1201,2,100,1000,1201,2008,,,,
2009,6,116.65055,39.908844,通州区,,110112,010,110112000000,,,通州,,,,,,,1201,2,100,1000,1201,2009,,,,
2010,6,116.648654,40.129236,顺义区,,110113,010,110113000000,,,顺义,,,,,,,1201,2,100,1000,1201,2010,,,,
2011,6,116.225121,40.219415,昌平区,,110114,010,110114000000,,,昌平,,,,,,,1201,2,100,1000,1201,2011,,,,
2012,6,116.334866,39.783419,大兴区,,110115,010,110115000000,,,大兴,,,,,,,1201,2,100,1000,1201,2012,,,,
2013,6,116.63645,40.314583,怀柔区,,110116,010,110116000000,,,怀柔,,,,,,,1201,2,100,1000,1201,2013,,,,
2014,6,117.114823,40.139279,平谷区,,110117,010,110117000000,,,平谷,,,,,,,1201,2,100,1000,1201,2014,,,,
2015,6,116.837144,40.375666,密云区,,110118,010,110118000000,,,密云,,,,,,,1201,2,100,1000,1201,2015,,,,
2016,6,115.968733,40.455725,延庆区,,110119,010,110119000000,,,延庆,,,,,,,1201,2,100,1000,1201,2016,,,,
2017,6,117.201833,39.11788,和平区,,120101,022,120101000000,,,和平,,,,,,,1202,2,100,1001,1202,2017,,,,
2018,6,117.245313,39.127299,河东区,,120102,022,120102000000,,,河东,,,,,,,1202,2,100,1001,1202,2018,,,,
2019,6,117.217097,39.10857,河西区,,120103,022,120103000000,,,河西,,,,,,,1202,2,100,1001,1202,2019,,,,
2020,6,117.144344,39.137074,南开区,,120104,022,120104000000,,,南开,,,,,,,1202,2,100,1001,1202,2020,,,,
2021,6,117.190335,39.146818,河北区,,120105,022,120105000000,,,河北,,,,,,,1202,2,100,1001,1202,2021,,,,
2022,6,117.145137,39.1662,红桥区,,120106,022,120106000000,,,红桥,,,,,,,1202,2,100,1001,1202,2022,,,,
2023,6,117.307941,39.085533,东丽区,,120110,022,120110000000,,,东丽,,,,,,,1202,2,100,1001,1202,2023,,,,
2024,6,117.007754,39.140555,西青区,,120111,022,120111000000,,,西青,,,,,,,1202,2,100,1001,1202,2024,,,,
2025,6,117.385434,38.983437,津南区,,120112,022,120112000000,,,津南,,,,,,,1202,2,100,1001,1202,2025,,,,
2026,6,117.132922,39.216624,北辰区,,120113,022,120113000000,,,北辰,,,,,,,1202,2,100,1001,1202,2026,,,,
2027,6,117.03804,39.382872,武清区,,120114,022,120114000000,,,武清,,,,,,,1202,2,100,1001,1202,2027,,,,
2028,6,117.30341,39.716094,宝坻区,,120115,022,120115000000,,,宝坻,,,,,,,1202,2,100,1001,1202,2028,,,,
2029,6,117.774372,39.245028,滨海新区,,120116,022,120116000000,,,滨海,,,,,,,1202,2,100,1001,1202,2029,,,,
2030,6,117.820428,39.328833,宁河区,,120117,022,120117000000,,,宁河,,,,,,,1202,2,100,1001,1202,2030,,,,
2031,6,116.968134,38.946713,静海区,,120118,022,120118000000,,,静海,,,,,,,1202,2,100,1001,1202,2031,,,,
2032,6,117.401618,40.044628,蓟州区,,120119,022,120119000000,,,蓟州,,,,,,,1202,2,100,1001,1202,2032,,,,
2033,6,114.533177,38.036099,长安区,,130102,0311,130102000000,,,长安,,,,,,,1203,2,100,1002,1203,2033,,,,
2034,6,114.454971,38.003263,桥西区,,130104,0311,130104000000,,,桥西,,,,,,,1203,2,100,1002,1203,2034,,,,
2035,6,114.457166,38.050295,新华区,,130105,0311,130105000000,,,新华,,,,,,,1203,2,100,1002,1203,2035,,,,
2036,6,114.508885,38.041687,井陉矿区,,130100,0311,130107000000,,,井陉,,,,,,,1203,2,100,1002,1203,2036,,,,
2037,6,114.525456,38.005872,裕华区,,130108,0311,130108000000,,,裕华,,,,,,,1203,2,100,1002,1203,2037,,,,
2038,6,114.841236,38.021021,藁城区,,130109,0311,130109000000,,,藁城,,,,,,,1203,2,100,1002,1203,2038,,,,
2039,6,114.307508,38.085241,鹿泉区,,130110,0311,130110000000,,,鹿泉,,,,,,,1203,2,100,1002,1203,2039,,,,
2040,6,114.642506,37.899641,栾城区,,130111,0311,130111000000,,,栾城,,,,,,,1203,2,100,1002,1203,2040,,,,
2041,6,114.138815,38.031348,井陉县,,130121,0311,130121000000,,,井陉,,,,,,,1203,2,100,1002,1203,2041,,,,
2042,6,114.565128,38.14597,正定县,,130123,0311,130123000000,,,正定,,,,,,,1203,2,100,1002,1203,2042,,,,
2043,6,114.54685,38.437925,行唐县,,130125,0311,130125000000,,,行唐,,,,,,,1203,2,100,1002,1203,2043,,,,
2044,6,114.369802,38.305319,灵寿县,,130126,0311,130126000000,,,灵寿,,,,,,,1203,2,100,1002,1203,2044,,,,
2045,6,114.605703,37.614622,高邑县,,130127,0311,130127000000,,,高邑,,,,,,,1203,2,100,1002,1203,2045,,,,
2046,6,115.194765,38.183379,深泽县,,130128,0311,130128000000,,,深泽,,,,,,,1203,2,100,1002,1203,2046,,,,
2047,6,114.379888,37.664682,赞皇县,,130129,0311,130129000000,,,赞皇,,,,,,,1203,2,100,1002,1203,2047,,,,
2048,6,114.970382,38.178564,无极县,,130130,0311,130130000000,,,无极,,,,,,,1203,2,100,1002,1203,2048,,,,
2049,6,114.192848,38.246478,平山县,,130131,0311,130131000000,,,平山,,,,,,,1203,2,100,1002,1203,2049,,,,
2050,6,114.51968,37.766013,元氏县,,130132,0311,130132000000,,,元氏,,,,,,,1203,2,100,1002,1203,2050,,,,
2051,6,114.770238,37.755792,赵县,,130133,0311,130133000000,,,,,,,,,,1203,2,100,1002,1203,2051,,,,
2052,6,114.462914,38.007342,石家庄高新技术产业开发区,,130104,0311,130171000000,,,,,,,,,,1203,2,100,1002,1203,2052,,,,
2053,6,114.687527,37.996118,石家庄循环化工园区,,130109,0311,130172000000,,,石家庄循环化工园,,,,,,,1203,2,100,1002,1203,2053,,,,
2054,6,115.211967,37.942597,辛集市,,130181,0311,130181000000,,,辛集,,,,,,,1203,2,100,1002,1203,2054,,,,
2055,6,115.03799,38.032831,晋州市,,130183,0311,130183000000,,,晋州,,,,,,,1203,2,100,1002,1203,2055,,,,
2056,6,114.678072,38.342742,新乐市,,130184,0311,130184000000,,,新乐,,,,,,,1203,2,100,1002,1203,2056,,,,
2057,6,118.148001,39.623705,路南区,,130202,0315,130202000000,,,路南,,,,,,,1204,2,100,1002,1204,2057,,,,
2058,6,118.194471,39.623166,路北区,,130203,0315,130203000000,,,路北,,,,,,,1204,2,100,1002,1204,2058,,,,
2059,6,118.441371,39.732187,古冶区,,130204,0315,130204000000,,,古冶,,,,,,,1204,2,100,1002,1204,2059,,,,
2060,6,118.255696,39.669759,开平区,,130205,0315,130205000000,,,开平,,,,,,,1204,2,100,1002,1204,2060,,,,
2061,6,118.078716,39.574635,丰南区,,130207,0315,130207000000,,,丰南,,,,,,,1204,2,100,1002,1204,2061,,,,
2062,6,118.155859,39.831215,丰润区,,130208,0315,130208000000,,,丰润,,,,,,,1204,2,100,1002,1204,2062,,,,
2063,6,118.454213,39.271857,曹妃甸区,,130209,0315,130209000000,,,曹妃甸,,,,,,,1204,2,100,1002,1204,2063,,,,
2064,6,118.676446,39.517859,滦南县,,130224,0315,130224000000,,,滦南,,,,,,,1204,2,100,1002,1204,2064,,,,
2065,6,118.906768,39.424607,乐亭县,,130225,0315,130225000000,,,乐亭,,,,,,,1204,2,100,1002,1204,2065,,,,
2066,6,118.308444,40.140155,迁西县,,130227,0315,130227000000,,,迁西,,,,,,,1204,2,100,1002,1204,2066,,,,
2067,6,117.732242,39.899154,玉田县,,130229,0315,130229000000,,,玉田,,,,,,,1204,2,100,1002,1204,2067,,,,
2068,6,118.138477,39.80482,河北唐山芦台经济开发区,,130208,0315,130271000000,,,,,,,,,,1204,2,100,1002,1204,2068,,,,
2069,6,117.877465,39.361539,唐山市汉沽管理区,,130207,0315,130272000000,,,,,,,,,,1204,2,100,1002,1204,2069,,,,
2070,6,118.173915,39.629559,唐山高新技术产业开发区,,130200,0315,130273000000,,,,,,,,,,1204,2,100,1002,1204,2070,,,,
2071,6,118.997352,39.23081,河北唐山海港经济开发区,,130225,0315,130274000000,,,,,,,,,,1204,2,100,1002,1204,2071,,,,
2072,6,117.959658,40.188026,遵化市,,130281,0315,130281000000,,,遵化,,,,,,,1204,2,100,1002,1204,2072,,,,
2073,6,118.695108,39.997942,迁安市,,130283,0315,130283000000,,,迁安,,,,,,,1204,2,100,1002,1204,2073,,,,
2074,6,118.683797,39.739182,滦州市,,130223,0315,130284000000,,,滦州,,,,,,,1204,2,100,1002,1204,2074,,,,
2075,6,119.559137,39.946428,海港区,,130302,0335,130302000000,,,海港,,,,,,,1205,2,100,1002,1205,2075,,,,
2076,6,119.769931,39.977563,山海关区,,130303,0335,130303000000,,,山海关,,,,,,,1205,2,100,1002,1205,2076,,,,
2077,6,119.482813,39.833433,北戴河区,,130304,0335,130304000000,,,北戴河,,,,,,,1205,2,100,1002,1205,2077,,,,
2078,6,119.229609,39.887955,抚宁区,,130306,0335,130306000000,,,抚宁,,,,,,,1205,2,100,1002,1205,2078,,,,
2079,6,118.94369,40.406364,青龙满族自治县,,130321,0335,130321000000,,,,,,,,,,1205,2,100,1002,1205,2079,,,,
2080,6,119.156447,39.711436,昌黎县,,130322,0335,130322000000,,,昌黎,,,,,,,1205,2,100,1002,1205,2080,,,,
2081,6,118.887129,39.890855,卢龙县,,130324,0335,130324000000,,,卢龙,,,,,,,1205,2,100,1002,1205,2081,,,,
2082,6,119.457587,39.930262,秦皇岛市经济技术开发区,,130302,0335,130371000000,,,,,,,,,,1205,2,100,1002,1205,2082,,,,
2083,6,119.467063,39.824726,北戴河新区,,130304,0335,130372000000,,,北戴河,,,,,,,1205,2,100,1002,1205,2083,,,,
2084,6,114.484521,36.580167,邯山区,,130402,0310,130402000000,,,邯山,,,,,,,1206,2,100,1002,1206,2084,,,,
2085,6,114.486991,36.636194,丛台区,,130403,0310,130403000000,,,丛台,,,,,,,1206,2,100,1002,1206,2085,,,,
2086,6,114.456034,36.63872,复兴区,,130404,0310,130404000000,,,复兴,,,,,,,1206,2,100,1002,1206,2086,,,,
2087,6,114.533233,36.625578,峰峰矿区,,130400,0310,130406000000,,,峰峰,,,,,,,1206,2,100,1002,1206,2087,,,,
2088,6,114.794388,36.548024,肥乡区,,130407,0310,130407000000,,,肥乡,,,,,,,1206,2,100,1002,1206,2088,,,,
2089,6,114.533233,36.625578,永年区,,130400,0310,130408000000,,,永年,,,,,,,1206,2,100,1002,1206,2089,,,,
2090,6,114.613946,36.335417,临漳县,,130423,0310,130423000000,,,临漳,,,,,,,1206,2,100,1002,1206,2090,,,,
2091,6,114.664332,36.444404,成安县,,130424,0310,130424000000,,,成安,,,,,,,1206,2,100,1002,1206,2091,,,,
2092,6,115.141777,36.285425,大名县,,130425,0310,130425000000,,,大名,,,,,,,1206,2,100,1002,1206,2092,,,,
2093,6,113.685052,36.584904,涉县,,130426,0310,130426000000,,,,,,,,,,1206,2,100,1002,1206,2093,,,,
2094,6,114.367835,36.373776,磁县,,130427,0310,130427000000,,,,,,,,,,1206,2,100,1002,1206,2094,,,,
2095,6,115.180778,36.810745,邱县,,130430,0310,130430000000,,,,,,,,,,1206,2,100,1002,1206,2095,,,,
2096,6,114.872632,36.92013,鸡泽县,,130431,0310,130431000000,,,鸡泽,,,,,,,1206,2,100,1002,1206,2096,,,,
2097,6,114.94293,36.483498,广平县,,130432,0310,130432000000,,,广平,,,,,,,1206,2,100,1002,1206,2097,,,,
2098,6,115.276527,36.547377,馆陶县,,130433,0310,130433000000,,,馆陶,,,,,,,1206,2,100,1002,1206,2098,,,,
2099,6,114.933336,36.359943,魏县,,130434,0310,130434000000,,,,,,,,,,1206,2,100,1002,1206,2099,,,,
2100,6,114.939431,36.780019,曲周县,,130435,0310,130435000000,,,曲周,,,,,,,1206,2,100,1002,1206,2100,,,,
2101,6,114.484521,36.580167,邯郸经济技术开发区,,130402,0310,130471000000,,,,,,,,,,1206,2,100,1002,1206,2101,,,,
2102,6,114.484521,36.580167,邯郸冀南新区,,130402,0310,130473000000,,,邯郸冀南新,,,,,,,1206,2,100,1002,1206,2102,,,,
2103,6,114.197602,36.696243,武安市,,130481,0310,130481000000,,,武安,,,,,,,1206,2,100,1002,1206,2103,,,,
2104,6,114.486063,37.061105,桥东区,,130502,0319,130502000000,,,桥东,,,,,,,1207,2,100,1002,1207,2104,,,,
2105,6,114.462386,37.059307,桥西区,,130503,0319,130503000000,,,桥西,,,,,,,1207,2,100,1002,1207,2105,,,,
2106,6,114.501521,37.072483,邢台县,,130502,0319,130521000000,,,邢台,,,,,,,1207,2,100,1002,1207,2106,,,,
2107,6,114.49279,37.443811,临城县,,130522,0319,130522000000,,,临城,,,,,,,1207,2,100,1002,1207,2107,,,,
2108,6,114.506229,37.286084,内丘县,,130523,0319,130523000000,,,内丘,,,,,,,1207,2,100,1002,1207,2108,,,,
2109,6,114.687561,37.481779,柏乡县,,130524,0319,130524000000,,,柏乡,,,,,,,1207,2,100,1002,1207,2109,,,,
2110,6,114.76451,37.349525,隆尧县,,130525,0319,130525000000,,,隆尧,,,,,,,1207,2,100,1002,1207,2110,,,,
2111,6,114.666159,37.120548,任县,,130526,0319,130526000000,,,,,,,,,,1207,2,100,1002,1207,2111,,,,
2112,6,114.677971,37.004663,南和县,,130527,0319,130527000000,,,南和,,,,,,,1207,2,100,1002,1207,2112,,,,
2113,6,114.913558,37.61934,宁晋县,,130528,0319,130528000000,,,宁晋,,,,,,,1207,2,100,1002,1207,2113,,,,
2114,6,115.031399,37.220409,巨鹿县,,130529,0319,130529000000,,,巨鹿,,,,,,,1207,2,100,1002,1207,2114,,,,
2115,6,115.235991,37.527991,新河县,,130530,0319,130530000000,,,新河,,,,,,,1207,2,100,1002,1207,2115,,,,
2116,6,115.136471,37.074006,广宗县,,130531,0319,130531000000,,,广宗,,,,,,,1207,2,100,1002,1207,2116,,,,
2117,6,115.02404,37.062564,平乡县,,130532,0319,130532000000,,,平乡,,,,,,,1207,2,100,1002,1207,2117,,,,
2118,6,115.260814,36.974875,威县,,130533,0319,130533000000,,,,,,,,,,1207,2,100,1002,1207,2118,,,,
2119,6,115.661771,37.039695,清河县,,130534,0319,130534000000,,,清河,,,,,,,1207,2,100,1002,1207,2119,,,,
2120,6,115.4951,36.870446,临西县,,130535,0319,130535000000,,,临西,,,,,,,1207,2,100,1002,1207,2120,,,,
2121,6,114.56003,37.061365,河北邢台经济开发区,,130521,0319,130571000000,,,,,,,,,,1207,2,100,1002,1207,2121,,,,
2122,6,115.402504,37.358407,南宫市,,130581,0319,130581000000,,,南宫,,,,,,,1207,2,100,1002,1207,2122,,,,
2123,6,114.497448,36.854593,沙河市,,130582,0319,130582000000,,,沙河,,,,,,,1207,2,100,1002,1207,2123,,,,
2124,6,115.452331,38.876645,竞秀区,,130602,0312,130602000000,,,竞秀,,,,,,,1208,2,100,1002,1208,2124,,,,
2125,6,115.491145,38.882396,莲池区,,130606,0312,130606000000,,,莲池,,,,,,,1208,2,100,1002,1208,2125,,,,
2126,6,115.316046,38.948032,满城区,,130607,0312,130607000000,,,满城,,,,,,,1208,2,100,1002,1208,2126,,,,
2127,6,115.483756,38.764268,清苑区,,130608,0312,130608000000,,,清苑,,,,,,,1208,2,100,1002,1208,2127,,,,
2128,6,115.61845,39.02551,徐水区,,130609,0312,130609000000,,,徐水,,,,,,,1208,2,100,1002,1208,2128,,,,
2129,6,115.70774,39.393241,涞水县,,130623,0312,130623000000,,,涞水,,,,,,,1208,2,100,1002,1208,2129,,,,
2130,6,114.188734,38.848342,阜平县,,130624,0312,130624000000,,,阜平,,,,,,,1208,2,100,1002,1208,2130,,,,
2131,6,115.802108,39.262038,定兴县,,130626,0312,130626000000,,,定兴,,,,,,,1208,2,100,1002,1208,2131,,,,
2132,6,114.976925,38.747531,唐县,,130627,0312,130627000000,,,,,,,,,,1208,2,100,1002,1208,2132,,,,
2133,6,115.7729,38.699383,高阳县,,130628,0312,130628000000,,,高阳,,,,,,,1208,2,100,1002,1208,2133,,,,
2134,6,115.855764,39.042028,容城县,,130629,0312,130629000000,,,容城,,,,,,,1208,2,100,1002,1208,2134,,,,
2135,6,114.688199,39.359239,涞源县,,130630,0312,130630000000,,,涞源,,,,,,,1208,2,100,1002,1208,2135,,,,
2136,6,115.148206,38.694905,望都县,,130631,0312,130631000000,,,望都,,,,,,,1208,2,100,1002,1208,2136,,,,
2137,6,115.929717,38.934679,安新县,,130632,0312,130632000000,,,安新,,,,,,,1208,2,100,1002,1208,2137,,,,
2138,6,115.491255,39.348316,易县,,130633,0312,130633000000,,,,,,,,,,1208,2,100,1002,1208,2138,,,,
2139,6,114.738906,38.621574,曲阳县,,130634,0312,130634000000,,,曲阳,,,,,,,1208,2,100,1002,1208,2139,,,,
2140,6,115.577961,38.487582,蠡县,,130635,0312,130635000000,,,,,,,,,,1208,2,100,1002,1208,2140,,,,
2141,6,115.129113,38.836558,顺平县,,130636,0312,130636000000,,,顺平,,,,,,,1208,2,100,1002,1208,2141,,,,
2142,6,115.458112,38.456615,博野县,,130637,0312,130637000000,,,博野,,,,,,,1208,2,100,1002,1208,2142,,,,
2143,6,116.102448,38.993483,雄县,,130638,0312,130638000000,,,,,,,,,,1208,2,100,1002,1208,2143,,,,
2144,6,115.458488,38.872991,保定高新技术产业开发区,,130600,0312,130671000000,,,,,,,,,,1208,2,100,1002,1208,2144,,,,
2145,6,116.038895,39.127138,保定白沟新城,,130684,0312,130672000000,,,,,,,,,,1208,2,100,1002,1208,2145,,,,
2146,6,115.968429,39.484217,涿州市,,130681,0312,130681000000,,,涿州,,,,,,,1208,2,100,1002,1208,2146,,,,
2147,6,114.984111,38.515557,定州市,,130682,0312,130682000000,,,定州,,,,,,,1208,2,100,1002,1208,2147,,,,
2148,6,115.320396,38.417707,安国市,,130683,0312,130683000000,,,安国,,,,,,,1208,2,100,1002,1208,2148,,,,
2149,6,115.867857,39.325618,高碑店市,,130684,0312,130684000000,,,高碑店,,,,,,,1208,2,100,1002,1208,2149,,,,
2150,6,114.888233,40.787162,桥东区,,130702,0313,130702000000,,,桥东,,,,,,,1209,2,100,1002,1209,2150,,,,
2151,6,114.863272,40.818225,桥西区,,130703,0313,130703000000,,,桥西,,,,,,,1209,2,100,1002,1209,2151,,,,
2152,6,115.092896,40.607184,宣化区,,130705,0313,130705000000,,,宣化,,,,,,,1209,2,100,1002,1209,2152,,,,
2153,6,115.280927,40.501322,下花园区,,130706,0313,130706000000,,,下花园,,,,,,,1209,2,100,1002,1209,2153,,,,
2154,6,114.734232,40.765442,万全区,,130708,0313,130708000000,,,万全,,,,,,,1209,2,100,1002,1209,2154,,,,
2155,6,115.27619,40.973015,崇礼区,,130709,0313,130709000000,,,崇礼,,,,,,,1209,2,100,1002,1209,2155,,,,
2156,6,114.713726,41.156793,张北县,,130722,0313,130722000000,,,张北,,,,,,,1209,2,100,1002,1209,2156,,,,
2157,6,114.594164,41.850506,康保县,,130723,0313,130723000000,,,康保,,,,,,,1209,2,100,1002,1209,2157,,,,
2158,6,115.682274,41.667669,沽源县,,130724,0313,130724000000,,,沽源,,,,,,,1209,2,100,1002,1209,2158,,,,
2159,6,113.962956,41.074619,尚义县,,130725,0313,130725000000,,,尚义,,,,,,,1209,2,100,1002,1209,2159,,,,
2160,6,114.582914,39.839851,蔚县,,130726,0313,130726000000,,,,,,,,,,1209,2,100,1002,1209,2160,,,,
2161,6,114.143717,40.102431,阳原县,,130727,0313,130727000000,,,阳原,,,,,,,1209,2,100,1002,1209,2161,,,,
2162,6,114.379147,40.672631,怀安县,,130728,0313,130728000000,,,怀安,,,,,,,1209,2,100,1002,1209,2162,,,,
2163,6,115.511554,40.414123,怀来县,,130730,0313,130730000000,,,怀来,,,,,,,1209,2,100,1002,1209,2163,,,,
2164,6,115.198935,40.378275,涿鹿县,,130731,0313,130731000000,,,涿鹿,,,,,,,1209,2,100,1002,1209,2164,,,,
2165,6,115.825291,40.91142,赤城县,,130732,0313,130732000000,,,赤城,,,,,,,1209,2,100,1002,1209,2165,,,,
2166,6,114.891423,40.824635,张家口经济开发区,,130702,0313,130771000000,,,,,,,,,,1209,2,100,1002,1209,2166,,,,
2167,6,114.937626,41.404006,张家口市察北管理区,,130722,0313,130772000000,,,,,,,,,,1209,2,100,1002,1209,2167,,,,
2168,6,115.810194,41.869618,张家口市塞北管理区,,130724,0313,130773000000,,,,,,,,,,1209,2,100,1002,1209,2168,,,,
2169,6,117.937063,40.973093,双桥区,,130802,0314,130802000000,,,双桥,,,,,,,1210,2,100,1002,1210,2169,,,,
2170,6,117.793428,40.957552,双滦区,,130803,0314,130803000000,,,双滦,,,,,,,1210,2,100,1002,1210,2170,,,,
2171,6,117.654782,40.545688,鹰手营子矿区,,130804,0314,130804000000,,,鹰手营子矿,,,,,,,1210,2,100,1002,1210,2171,,,,
2172,6,118.167377,40.766608,承德县,,130821,0314,130821000000,,,承德,,,,,,,1210,2,100,1002,1210,2172,,,,
2173,6,117.494046,40.41604,兴隆县,,130822,0314,130822000000,,,兴隆,,,,,,,1210,2,100,1002,1210,2173,,,,
2174,6,117.326119,40.939718,滦平县,,130824,0314,130824000000,,,滦平,,,,,,,1210,2,100,1002,1210,2174,,,,
2175,6,117.73233,41.311829,隆化县,,130825,0314,130825000000,,,隆化,,,,,,,1210,2,100,1002,1210,2175,,,,
2176,6,116.639967,41.207225,丰宁满族自治县,,130826,0314,130826000000,,,,,,,,,,1210,2,100,1002,1210,2176,,,,
2177,6,118.479067,40.609909,宽城满族自治县,,130827,0314,130827000000,,,,,,,,,,1210,2,100,1002,1210,2177,,,,
2178,6,117.753469,41.936411,围场满族蒙古族自治县,,130828,0314,130828000000,,,,,,,,,,1210,2,100,1002,1210,2178,,,,
2179,6,118.167377,40.766608,承德高新技术产业开发区,,130821,0314,130871000000,,,,,,,,,,1210,2,100,1002,1210,2179,,,,
2180,6,117.956084,40.95249,平泉市,,130800,0314,130881000000,,,平泉,,,,,,,1210,2,100,1002,1210,2180,,,,
2181,6,116.860535,38.313903,新华区,,130902,0317,130902000000,,,新华,,,,,,,1211,2,100,1002,1211,2181,,,,
2182,6,116.826473,38.309573,运河区,,130903,0317,130903000000,,,运河,,,,,,,1211,2,100,1002,1211,2182,,,,
2183,6,117.001424,38.219149,沧县,,130921,0317,130921000000,,,,,,,,,,1211,2,100,1002,1211,2183,,,,
2184,6,116.798421,38.58237,青县,,130922,0317,130922000000,,,,,,,,,,1211,2,100,1002,1211,2184,,,,
2185,6,116.531428,37.887616,东光县,,130923,0317,130923000000,,,东光,,,,,,,1211,2,100,1002,1211,2185,,,,
2186,6,117.490371,38.140865,海兴县,,130924,0317,130924000000,,,海兴,,,,,,,1211,2,100,1002,1211,2186,,,,
2187,6,117.224462,38.057364,盐山县,,130925,0317,130925000000,,,盐山,,,,,,,1211,2,100,1002,1211,2187,,,,
2188,6,115.823852,38.422247,肃宁县,,130926,0317,130926000000,,,肃宁,,,,,,,1211,2,100,1002,1211,2188,,,,
2189,6,116.702304,38.037905,南皮县,,130927,0317,130927000000,,,南皮,,,,,,,1211,2,100,1002,1211,2189,,,,
2190,6,116.385543,37.626723,吴桥县,,130928,0317,130928000000,,,吴桥,,,,,,,1211,2,100,1002,1211,2190,,,,
2191,6,116.116716,38.189302,献县,,130929,0317,130929000000,,,,,,,,,,1211,2,100,1002,1211,2191,,,,
2192,6,117.098001,38.052509,孟村回族自治县,,130930,0317,130930000000,,,,,,,,,,1211,2,100,1002,1211,2192,,,,
2193,6,116.935138,38.28249,河北沧州经济开发区,,130921,0317,130971000000,,,,,,,,,,1211,2,100,1002,1211,2193,,,,
2194,6,116.80493,38.337615,沧州高新技术产业开发区,,130903,0317,130972000000,,,,,,,,,,1211,2,100,1002,1211,2194,,,,
2195,6,117.771955,38.269577,沧州渤海新区,,130983,0317,130973000000,,,沧州渤海新,,,,,,,1211,2,100,1002,1211,2195,,,,
2196,6,116.572789,38.082915,泊头市,,130981,0317,130981000000,,,泊头,,,,,,,1211,2,100,1002,1211,2196,,,,
2197,6,116.076746,38.682692,任丘市,,130982,0317,130982000000,,,任丘,,,,,,,1211,2,100,1002,1211,2197,,,,
2198,6,117.323711,38.370603,黄骅市,,130983,0317,130983000000,,,黄骅,,,,,,,1211,2,100,1002,1211,2198,,,,
2199,6,116.093376,38.445779,河间市,,130984,0317,130984000000,,,河间,,,,,,,1211,2,100,1002,1211,2199,,,,
2200,6,116.688603,39.501459,安次区,,131002,0316,131002000000,,,安次,,,,,,,1212,2,100,1002,1212,2200,,,,
2201,6,116.704708,39.521645,广阳区,,131003,0316,131003000000,,,广阳,,,,,,,1212,2,100,1002,1212,2201,,,,
2202,6,116.292644,39.437042,固安县,,131022,0316,131022000000,,,固安,,,,,,,1212,2,100,1002,1212,2202,,,,
2203,6,116.49309,39.320708,永清县,,131023,0316,131023000000,,,永清,,,,,,,1212,2,100,1002,1212,2203,,,,
2204,6,116.999855,39.760183,香河县,,131024,0316,131024000000,,,香河,,,,,,,1212,2,100,1002,1212,2204,,,,
2205,6,116.64806,38.704836,大城县,,131025,0316,131025000000,,,大城,,,,,,,1212,2,100,1002,1212,2205,,,,
2206,6,116.45183,38.872343,文安县,,131026,0316,131026000000,,,文安,,,,,,,1212,2,100,1002,1212,2206,,,,
2207,6,116.983395,39.885347,大厂回族自治县,,131028,0316,131028000000,,,,,,,,,,1212,2,100,1002,1212,2207,,,,
2208,6,116.75244,39.5656,廊坊经济技术开发区,,131003,0316,131071000000,,,,,,,,,,1212,2,100,1002,1212,2208,,,,
2209,6,116.385243,39.124744,霸州市,,131081,0316,131081000000,,,霸州,,,,,,,1212,2,100,1002,1212,2209,,,,
2210,6,117.071778,39.981304,三河市,,131082,0316,131082000000,,,三河,,,,,,,1212,2,100,1002,1212,2210,,,,
2211,6,115.669522,37.734717,桃城区,,131102,0318,131102000000,,,桃城,,,,,,,1213,2,100,1002,1213,2211,,,,
2212,6,115.573542,37.550268,冀州区,,131103,0318,131103000000,,,冀州,,,,,,,1213,2,100,1002,1213,2212,,,,
2213,6,115.718308,37.512702,枣强县,,131121,0318,131121000000,,,枣强,,,,,,,1213,2,100,1002,1213,2213,,,,
2214,6,115.881952,37.801101,武邑县,,131122,0318,131122000000,,,武邑,,,,,,,1213,2,100,1002,1213,2214,,,,
2215,6,115.976614,38.040726,武强县,,131123,0318,131123000000,,,武强,,,,,,,1213,2,100,1002,1213,2215,,,,
2216,6,115.719796,38.235248,饶阳县,,131124,0318,131124000000,,,饶阳,,,,,,,1213,2,100,1002,1213,2216,,,,
2217,6,115.513182,38.233916,安平县,,131125,0318,131125000000,,,安平,,,,,,,1213,2,100,1002,1213,2217,,,,
2218,6,115.960154,37.346828,故城县,,131126,0318,131126000000,,,故城,,,,,,,1213,2,100,1002,1213,2218,,,,
2219,6,116.264876,37.691528,景县,,131127,0318,131127000000,,,,,,,,,,1213,2,100,1002,1213,2219,,,,
2220,6,116.138415,37.867996,阜城县,,131128,0318,131128000000,,,阜城,,,,,,,1213,2,100,1002,1213,2220,,,,
2221,6,115.664288,37.738278,河北衡水高新技术产业开发区,,131100,0318,131171000000,,,,,,,,,,1213,2,100,1002,1213,2221,,,,
2222,6,115.646505,37.64214,衡水滨湖新区,,131102,0318,131172000000,,,衡水滨湖,,,,,,,1213,2,100,1002,1213,2222,,,,
2223,6,115.553695,38.000994,深州市,,131182,0318,131182000000,,,深州,,,,,,,1213,2,100,1002,1213,2223,,,,
2224,6,112.558054,37.742426,小店区,,140105,0351,140105000000,,,小店,,,,,,,1214,2,100,1003,1214,2224,,,,
2225,6,112.557133,37.862951,迎泽区,,140106,0351,140106000000,,,迎泽,,,,,,,1214,2,100,1003,1214,2225,,,,
2226,6,112.564345,37.89347,杏花岭区,,140107,0351,140107000000,,,杏花岭,,,,,,,1214,2,100,1003,1214,2226,,,,
2227,6,112.480173,37.939705,尖草坪区,,140108,0351,140108000000,,,尖草坪,,,,,,,1214,2,100,1003,1214,2227,,,,
2228,6,112.509347,37.858836,万柏林区,,140109,0351,140109000000,,,万柏林,,,,,,,1214,2,100,1003,1214,2228,,,,
2229,6,112.471418,37.714454,晋源区,,140110,0351,140110000000,,,晋源,,,,,,,1214,2,100,1003,1214,2229,,,,
2230,6,112.352053,37.606624,清徐县,,140121,0351,140121000000,,,清徐,,,,,,,1214,2,100,1003,1214,2230,,,,
2231,6,112.666556,38.05796,阳曲县,,140122,0351,140122000000,,,阳曲,,,,,,,1214,2,100,1003,1214,2231,,,,
2232,6,111.790568,38.06737,娄烦县,,140123,0351,140123000000,,,娄烦,,,,,,,1214,2,100,1003,1214,2232,,,,
2233,6,112.54258,37.870065,山西转型综合改革示范区,,140100,0351,140171000000,,,,,,,,,,1214,2,100,1003,1214,2233,,,,
2234,6,112.169279,37.90638,古交市,,140181,0351,140181000000,,,古交,,,,,,,1214,2,100,1003,1214,2234,,,,
2235,6,113.132854,40.254542,新荣区,,140212,0352,140212000000,,,新荣,,,,,,,1215,2,100,1003,1215,2235,,,,
2236,6,113.293112,40.075562,平城区,,140200,0352,140213000000,,,平城,,,,,,,1215,2,100,1003,1215,2236,,,,
2237,6,113.123624,40.108077,云冈区,,140211,0352,140214000000,,,云冈,,,,,,,1215,2,100,1003,1215,2237,,,,
2238,6,113.293112,40.075562,云州区,,140200,0352,140215000000,,,云州,,,,,,,1215,2,100,1003,1215,2238,,,,
2239,6,113.742089,40.359847,阳高县,,140221,0352,140221000000,,,阳高,,,,,,,1215,2,100,1003,1215,2239,,,,
2240,6,114.084039,40.418812,天镇县,,140222,0352,140222000000,,,天镇,,,,,,,1215,2,100,1003,1215,2240,,,,
2241,6,114.267651,39.760577,广灵县,,140223,0352,140223000000,,,广灵,,,,,,,1215,2,100,1003,1215,2241,,,,
2242,6,114.227996,39.441315,灵丘县,,140224,0352,140224000000,,,灵丘,,,,,,,1215,2,100,1003,1215,2242,,,,
2243,6,113.692734,39.692312,浑源县,,140225,0352,140225000000,,,浑源,,,,,,,1215,2,100,1003,1215,2243,,,,
2244,6,112.696291,40.012342,左云县,,140226,0352,140226000000,,,左云,,,,,,,1215,2,100,1003,1215,2244,,,,
2245,6,113.390232,40.07255,山西大同经济开发区,,140211,0352,140271000000,,,,,,,,,,1215,2,100,1003,1215,2245,,,,
2246,6,113.594286,37.846939,城区,,140302,0353,140302000000,,,,,,,,,,1216,2,100,1003,1216,2246,,,,
2247,6,113.574117,37.856468,矿区,,140300,0353,140303000000,,,,,,,,,,1216,2,100,1003,1216,2247,,,,
2248,6,113.587766,37.944199,郊区,,140311,0353,140311000000,,,,,,,,,,1216,2,100,1003,1216,2248,,,,
2249,6,113.651411,37.786081,平定县,,140321,0353,140321000000,,,平定,,,,,,,1216,2,100,1003,1216,2249,,,,
2250,6,113.4054,38.084805,盂县,,140322,0353,140322000000,,,,,,,,,,1216,2,100,1003,1216,2250,,,,
2251,6,113.10959,36.195219,潞州区,,140400,0355,140403000000,,,潞州,,,,,,,1217,2,100,1003,1217,2251,,,,
2252,6,113.104543,36.187017,上党区,,140402,0355,140404000000,,,上党,,,,,,,1217,2,100,1003,1217,2252,,,,
2253,6,112.885994,36.316094,屯留区,,140424,0355,140405000000,,,屯留,,,,,,,1217,2,100,1003,1217,2253,,,,
2254,6,113.222355,36.334065,潞城区,,140481,0355,140406000000,,,潞城,,,,,,,1217,2,100,1003,1217,2254,,,,
2255,6,113.044857,36.535569,襄垣县,,140423,0355,140423000000,,,襄垣,,,,,,,1217,2,100,1003,1217,2255,,,,
2256,6,113.429292,36.200023,平顺县,,140425,0355,140425000000,,,平顺,,,,,,,1217,2,100,1003,1217,2256,,,,
2257,6,113.379808,36.50334,黎城县,,140426,0355,140426000000,,,黎城,,,,,,,1217,2,100,1003,1217,2257,,,,
2258,6,113.200551,36.115444,壶关县,,140427,0355,140427000000,,,壶关,,,,,,,1217,2,100,1003,1217,2258,,,,
2259,6,112.871757,36.12254,长子县,,140428,0355,140428000000,,,长子,,,,,,,1217,2,100,1003,1217,2259,,,,
2260,6,112.858326,36.837488,武乡县,,140429,0355,140429000000,,,武乡,,,,,,,1217,2,100,1003,1217,2260,,,,
2261,6,112.692914,36.755875,沁县,,140430,0355,140430000000,,,,,,,,,,1217,2,100,1003,1217,2261,,,,
2262,6,112.331005,36.500009,沁源县,,140431,0355,140431000000,,,沁源,,,,,,,1217,2,100,1003,1217,2262,,,,
2263,6,113.10959,36.195219,山西长治高新技术产业园区,,140400,0355,140471000000,,,,,,,,,,1217,2,100,1003,1217,2263,,,,
2264,6,112.847448,35.501982,城区,,140502,0356,140502000000,,,,,,,,,,1218,2,100,1003,1218,2264,,,,
2265,6,112.180424,35.690248,沁水县,,140521,0356,140521000000,,,沁水,,,,,,,1218,2,100,1003,1218,2265,,,,
2266,6,112.408328,35.486136,阳城县,,140522,0356,140522000000,,,阳城,,,,,,,1218,2,100,1003,1218,2266,,,,
2267,6,113.274237,35.775784,陵川县,,140524,0356,140524000000,,,陵川,,,,,,,1218,2,100,1003,1218,2267,,,,
2268,6,112.893056,35.617602,泽州县,,140525,0356,140525000000,,,泽州,,,,,,,1218,2,100,1003,1218,2268,,,,
2269,6,112.917798,35.798287,高平市,,140581,0356,140581000000,,,高平,,,,,,,1218,2,100,1003,1218,2269,,,,
2270,6,112.425404,39.317784,朔城区,,140602,0349,140602000000,,,朔城,,,,,,,1219,2,100,1003,1219,2270,,,,
2271,6,112.28163,39.511062,平鲁区,,140603,0349,140603000000,,,平鲁,,,,,,,1219,2,100,1003,1219,2271,,,,
2272,6,112.809952,39.525217,山阴县,,140621,0349,140621000000,,,山阴,,,,,,,1219,2,100,1003,1219,2272,,,,
2273,6,113.184149,39.553089,应县,,140622,0349,140622000000,,,,,,,,,,1219,2,100,1003,1219,2273,,,,
2274,6,112.460145,39.987837,右玉县,,140623,0349,140623000000,,,右玉,,,,,,,1219,2,100,1003,1219,2274,,,,
2275,6,112.450198,39.3475,山西朔州经济开发区,,140602,0349,140671000000,,,,,,,,,,1219,2,100,1003,1219,2275,,,,
2276,6,113.092832,39.826591,怀仁市,,140624,0349,140681000000,,,怀仁,,,,,,,1219,2,100,1003,1219,2276,,,,
2277,6,112.7018,37.697144,榆次区,,140702,0354,140702000000,,,榆次,,,,,,,1220,2,100,1003,1220,2277,,,,
2278,6,112.968878,37.0704,榆社县,,140721,0354,140721000000,,,榆社,,,,,,,1220,2,100,1003,1220,2278,,,,
2279,6,113.372573,37.08203,左权县,,140722,0354,140722000000,,,左权,,,,,,,1220,2,100,1003,1220,2279,,,,
2280,6,113.564081,37.329209,和顺县,,140723,0354,140723000000,,,和顺,,,,,,,1220,2,100,1003,1220,2280,,,,
2281,6,113.700384,37.610545,昔阳县,,140724,0354,140724000000,,,昔阳,,,,,,,1220,2,100,1003,1220,2281,,,,
2282,6,113.169666,37.894574,寿阳县,,140725,0354,140725000000,,,寿阳,,,,,,,1220,2,100,1003,1220,2282,,,,
2283,6,112.545115,37.420808,太谷县,,140726,0354,140726000000,,,太谷,,,,,,,1220,2,100,1003,1220,2283,,,,
2284,6,112.328762,37.3576,祁县,,140727,0354,140727000000,,,,,,,,,,1220,2,100,1003,1220,2284,,,,
2285,6,112.169763,37.188952,平遥县,,140728,0354,140728000000,,,平遥,,,,,,,1220,2,100,1003,1220,2285,,,,
2286,6,111.772282,36.847596,灵石县,,140729,0354,140729000000,,,灵石,,,,,,,1220,2,100,1003,1220,2286,,,,
2287,6,111.910504,37.026716,介休市,,140781,0354,140781000000,,,介休,,,,,,,1220,2,100,1003,1220,2287,,,,
2288,6,110.992501,35.015878,盐湖区,,140802,0359,140802000000,,,盐湖,,,,,,,1221,2,100,1003,1221,2288,,,,
2289,6,110.768982,35.144922,临猗县,,140821,0359,140821000000,,,临猗,,,,,,,1221,2,100,1003,1221,2289,,,,
2290,6,110.8325,35.41574,万荣县,,140822,0359,140822000000,,,万荣,,,,,,,1221,2,100,1003,1221,2290,,,,
2291,6,111.218684,35.357048,闻喜县,,140823,0359,140823000000,,,闻喜,,,,,,,1221,2,100,1003,1221,2291,,,,
2292,6,110.977573,35.604315,稷山县,,140824,0359,140824000000,,,稷山,,,,,,,1221,2,100,1003,1221,2292,,,,
2293,6,111.218715,35.616505,新绛县,,140825,0359,140825000000,,,新绛,,,,,,,1221,2,100,1003,1221,2293,,,,
2294,6,111.562197,35.491656,绛县,,140826,0359,140826000000,,,,,,,,,,1221,2,100,1003,1221,2294,,,,
2295,6,111.663793,35.298179,垣曲县,,140827,0359,140827000000,,,垣曲,,,,,,,1221,2,100,1003,1221,2295,,,,
2296,6,111.214441,35.141976,夏县,,140828,0359,140828000000,,,,,,,,,,1221,2,100,1003,1221,2296,,,,
2297,6,111.188127,34.830179,平陆县,,140829,0359,140829000000,,,平陆,,,,,,,1221,2,100,1003,1221,2297,,,,
2298,6,110.688965,34.69475,芮城县,,140830,0359,140830000000,,,芮城,,,,,,,1221,2,100,1003,1221,2298,,,,
2299,6,110.442048,34.867856,永济市,,140881,0359,140881000000,,,永济,,,,,,,1221,2,100,1003,1221,2299,,,,
2300,6,110.706526,35.596658,河津市,,140882,0359,140882000000,,,河津,,,,,,,1221,2,100,1003,1221,2300,,,,
2301,6,112.73947,38.403658,忻府区,,140902,0350,140902000000,,,忻府,,,,,,,1222,2,100,1003,1222,2301,,,,
2302,6,112.950704,38.47307,定襄县,,140921,0350,140921000000,,,定襄,,,,,,,1222,2,100,1003,1222,2302,,,,
2303,6,113.24853,38.727637,五台县,,140922,0350,140922000000,,,五台,,,,,,,1222,2,100,1003,1222,2303,,,,
2304,6,112.953687,39.066168,代县,,140923,0350,140923000000,,,,,,,,,,1222,2,100,1003,1222,2304,,,,
2305,6,113.258719,39.187867,繁峙县,,140924,0350,140924000000,,,繁峙,,,,,,,1222,2,100,1003,1222,2305,,,,
2306,6,112.298056,39.000667,宁武县,,140925,0350,140925000000,,,宁武,,,,,,,1222,2,100,1003,1222,2306,,,,
2307,6,111.933049,38.358623,静乐县,,140926,0350,140926000000,,,静乐,,,,,,,1222,2,100,1003,1222,2307,,,,
2308,6,112.204638,39.089668,神池县,,140927,0350,140927000000,,,神池,,,,,,,1222,2,100,1003,1222,2308,,,,
2309,6,111.840405,38.910114,五寨县,,140928,0350,140928000000,,,五寨,,,,,,,1222,2,100,1003,1222,2309,,,,
2310,6,111.566458,38.70372,岢岚县,,140929,0350,140929000000,,,岢岚,,,,,,,1222,2,100,1003,1222,2310,,,,
2311,6,111.131881,39.383336,河曲县,,140930,0350,140930000000,,,河曲,,,,,,,1222,2,100,1003,1222,2311,,,,
2312,6,111.080031,39.021514,保德县,,140931,0350,140931000000,,,保德,,,,,,,1222,2,100,1003,1222,2312,,,,
2313,6,111.502189,39.43531,偏关县,,140932,0350,140932000000,,,偏关,,,,,,,1222,2,100,1003,1222,2313,,,,
2314,6,113.5842,38.968009,五台山风景名胜区,,140922,0350,140971000000,,,五台山风景名胜,,,,,,,1222,2,100,1003,1222,2314,,,,
2315,6,112.704488,38.730762,原平市,,140981,0350,140981000000,,,原平,,,,,,,1222,2,100,1003,1222,2315,,,,
2316,6,111.573465,36.079086,尧都区,,141002,0357,141002000000,,,尧都,,,,,,,1223,2,100,1003,1223,2316,,,,
2317,6,111.469554,35.641227,曲沃县,,141021,0357,141021000000,,,曲沃,,,,,,,1223,2,100,1003,1223,2317,,,,
2318,6,111.712676,35.738755,翼城县,,141022,0357,141022000000,,,翼城,,,,,,,1223,2,100,1003,1223,2318,,,,
2319,6,111.435313,35.876262,襄汾县,,141023,0357,141023000000,,,襄汾,,,,,,,1223,2,100,1003,1223,2319,,,,
2320,6,111.668727,36.25386,洪洞县,,141024,0357,141024000000,,,洪洞,,,,,,,1223,2,100,1003,1223,2320,,,,
2321,6,111.914339,36.267107,古县,,141025,0357,141025000000,,,,,,,,,,1223,2,100,1003,1223,2321,,,,
2322,6,112.24387,36.147826,安泽县,,141026,0357,141026000000,,,安泽,,,,,,,1223,2,100,1003,1223,2322,,,,
2323,6,111.842725,35.968344,浮山县,,141027,0357,141027000000,,,浮山,,,,,,,1223,2,100,1003,1223,2323,,,,
2324,6,110.676262,36.098344,吉县,,141028,0357,141028000000,,,,,,,,,,1223,2,100,1003,1223,2324,,,,
2325,6,110.841454,35.970625,乡宁县,,141029,0357,141029000000,,,乡宁,,,,,,,1223,2,100,1003,1223,2325,,,,
2326,6,110.747213,36.465101,大宁县,,141030,0357,141030000000,,,大宁,,,,,,,1223,2,100,1003,1223,2326,,,,
2327,6,110.934935,36.693324,隰县,,141031,0357,141031000000,,,,,,,,,,1223,2,100,1003,1223,2327,,,,
2328,6,110.626585,36.759473,永和县,,141032,0357,141032000000,,,永和,,,,,,,1223,2,100,1003,1223,2328,,,,
2329,6,111.090195,36.411625,蒲县,,141033,0357,141033000000,,,,,,,,,,1223,2,100,1003,1223,2329,,,,
2330,6,111.557782,36.652867,汾西县,,141034,0357,141034000000,,,汾西,,,,,,,1223,2,100,1003,1223,2330,,,,
2331,6,111.365639,35.619163,侯马市,,141081,0357,141081000000,,,侯马,,,,,,,1223,2,100,1003,1223,2331,,,,
2332,6,111.749008,36.568829,霍州市,,141082,0357,141082000000,,,霍州,,,,,,,1223,2,100,1003,1223,2332,,,,
2333,6,111.144378,37.516875,离石区,,141102,0358,141102000000,,,离石,,,,,,,1224,2,100,1003,1224,2333,,,,
2334,6,112.0223,37.437386,文水县,,141121,0358,141121000000,,,文水,,,,,,,1224,2,100,1003,1224,2334,,,,
2335,6,112.149236,37.551186,交城县,,141122,0358,141122000000,,,交城,,,,,,,1224,2,100,1003,1224,2335,,,,
2336,6,111.121182,38.461668,兴县,,141123,0358,141123000000,,,,,,,,,,1224,2,100,1003,1224,2336,,,,
2337,6,110.986044,37.950173,临县,,141124,0358,141124000000,,,,,,,,,,1224,2,100,1003,1224,2337,,,,
2338,6,110.88338,37.429408,柳林县,,141125,0358,141125000000,,,柳林,,,,,,,1224,2,100,1003,1224,2338,,,,
2339,6,110.828874,36.997152,石楼县,,141126,0358,141126000000,,,石楼,,,,,,,1224,2,100,1003,1224,2339,,,,
2340,6,111.665454,38.278829,岚县,,141127,0358,141127000000,,,,,,,,,,1224,2,100,1003,1224,2340,,,,
2341,6,111.237783,37.894005,方山县,,141128,0358,141128000000,,,方山,,,,,,,1224,2,100,1003,1224,2341,,,,
2342,6,111.173361,37.356393,中阳县,,141129,0358,141129000000,,,中阳,,,,,,,1224,2,100,1003,1224,2342,,,,
2343,6,111.174899,36.981746,交口县,,141130,0358,141130000000,,,交口,,,,,,,1224,2,100,1003,1224,2343,,,,
2344,6,111.772381,37.145823,孝义市,,141181,0358,141181000000,,,孝义,,,,,,,1224,2,100,1003,1224,2344,,,,
2345,6,111.763434,37.261018,汾阳市,,141182,0358,141182000000,,,汾阳,,,,,,,1224,2,100,1003,1224,2345,,,,
2346,6,111.658773,40.856937,新城区,,150102,0471,150102000000,,,新城,,,,,,,1225,2,100,1004,1225,2346,,,,
2347,6,111.617022,40.807362,回民区,,150103,0471,150103000000,,,回民,,,,,,,1225,2,100,1004,1225,2347,,,,
2348,6,111.667102,40.752369,玉泉区,,150104,0471,150104000000,,,玉泉,,,,,,,1225,2,100,1004,1225,2348,,,,
2349,6,111.695003,40.790732,赛罕区,,150105,0471,150105000000,,,赛罕,,,,,,,1225,2,100,1004,1225,2349,,,,
2350,6,111.157171,40.728118,土默特左旗,,150121,0471,150121000000,,,,,,,,,,1225,2,100,1004,1225,2350,,,,
2351,6,111.187685,40.276245,托克托县,,150122,0471,150122000000,,,托克托,,,,,,,1225,2,100,1004,1225,2351,,,,
2352,6,111.815095,40.377695,和林格尔县,,150123,0471,150123000000,,,和林格尔,,,,,,,1225,2,100,1004,1225,2352,,,,
2353,6,111.641006,39.920122,清水河县,,150124,0471,150124000000,,,清水河,,,,,,,1225,2,100,1004,1225,2353,,,,
2354,6,111.444265,41.094687,武川县,,150125,0471,150125000000,,,武川,,,,,,,1225,2,100,1004,1225,2354,,,,
2355,6,111.600881,40.80547,呼和浩特金海工业园区,,150103,0471,150171000000,,,呼和浩特金海工业园,,,,,,,1225,2,100,1004,1225,2355,,,,
2356,6,111.748846,40.833096,呼和浩特经济技术开发区,,150105,0471,150172000000,,,,,,,,,,1225,2,100,1004,1225,2356,,,,
2357,6,110.038135,40.574606,东河区,,150202,0472,150202000000,,,东河,,,,,,,1226,2,100,1004,1226,2357,,,,
2358,6,109.83247,40.641094,昆都仑区,,150203,0472,150203000000,,,昆都仑,,,,,,,1226,2,100,1004,1226,2358,,,,
2359,6,109.895958,40.642173,青山区,,150204,0472,150204000000,,,青山,,,,,,,1226,2,100,1004,1226,2359,,,,
2360,6,110.054624,40.675208,石拐区,,150205,0472,150205000000,,,石拐,,,,,,,1226,2,100,1004,1226,2360,,,,
2361,6,109.834643,40.656301,白云鄂博矿区,,150200,0472,150206000000,,,白云鄂博,,,,,,,1226,2,100,1004,1226,2361,,,,
2362,6,109.962391,40.59944,九原区,,150207,0472,150207000000,,,九原,,,,,,,1226,2,100,1004,1226,2362,,,,
2363,6,110.518386,40.568269,土默特右旗,,150221,0472,150221000000,,,,,,,,,,1226,2,100,1004,1226,2363,,,,
2364,6,110.054409,41.032385,固阳县,,150222,0472,150222000000,,,固阳,,,,,,,1226,2,100,1004,1226,2364,,,,
2365,6,110.426349,41.69689,达尔罕茂明安联合旗,,150223,0472,150223000000,,,,,,,,,,1226,2,100,1004,1226,2365,,,,
2366,6,109.834643,40.656301,包头稀土高新技术产业开发区,,150200,0472,150271000000,,,,,,,,,,1226,2,100,1004,1226,2366,,,,
2367,6,106.818055,39.690256,海勃湾区,,150302,0473,150302000000,,,海勃湾,,,,,,,1227,2,100,1004,1227,2367,,,,
2368,6,106.886792,39.440626,海南区,,150303,0473,150303000000,,,海南,,,,,,,1227,2,100,1004,1227,2368,,,,
2369,6,106.721376,39.504996,乌达区,,150304,0473,150304000000,,,乌达,,,,,,,1227,2,100,1004,1227,2369,,,,
2370,6,118.960994,42.26994,红山区,,150402,0476,150402000000,,,红山,,,,,,,1228,2,100,1004,1228,2370,,,,
2371,6,119.282164,42.036727,元宝山区,,150403,0476,150403000000,,,元宝山,,,,,,,1228,2,100,1004,1228,2371,,,,
2372,6,118.92703,42.282056,松山区,,150404,0476,150404000000,,,松山,,,,,,,1228,2,100,1004,1228,2372,,,,
2373,6,120.059346,43.86994,阿鲁科尔沁旗,,150421,0476,150421000000,,,,,,,,,,1228,2,100,1004,1228,2373,,,,
2374,6,119.372569,43.968831,巴林左旗,,150422,0476,150422000000,,,,,,,,,,1228,2,100,1004,1228,2374,,,,
2375,6,118.658746,43.532217,巴林右旗,,150423,0476,150423000000,,,,,,,,,,1228,2,100,1004,1228,2375,,,,
2376,6,118.048449,43.615711,林西县,,150424,0476,150424000000,,,林西,,,,,,,1228,2,100,1004,1228,2376,,,,
2377,6,117.539043,43.262829,克什克腾旗,,150425,0476,150425000000,,,,,,,,,,1228,2,100,1004,1228,2377,,,,
2378,6,119.000023,42.933932,翁牛特旗,,150426,0476,150426000000,,,,,,,,,,1228,2,100,1004,1228,2378,,,,
2379,6,118.695644,41.925261,喀喇沁旗,,150428,0476,150428000000,,,,,,,,,,1228,2,100,1004,1228,2379,,,,
2380,6,118.551515,41.413582,宁城县,,150429,0476,150429000000,,,宁城,,,,,,,1228,2,100,1004,1228,2380,,,,
2381,6,119.915788,42.288819,敖汉旗,,150430,0476,150430000000,,,,,,,,,,1228,2,100,1004,1228,2381,,,,
2382,6,122.250129,43.620704,科尔沁区,,150502,0475,150502000000,,,科尔沁,,,,,,,1229,2,100,1004,1229,2382,,,,
2383,6,123.305987,44.124432,科尔沁左翼中旗,,150521,0475,150521000000,,,,,,,,,,1229,2,100,1004,1229,2383,,,,
2384,6,122.351109,42.932693,科尔沁左翼后旗,,150522,0475,150522000000,,,,,,,,,,1229,2,100,1004,1229,2384,,,,
2385,6,121.313415,43.598812,开鲁县,,150523,0475,150523000000,,,开鲁,,,,,,,1229,2,100,1004,1229,2385,,,,
2386,6,121.805199,42.733477,库伦旗,,150524,0475,150524000000,,,,,,,,,,1229,2,100,1004,1229,2386,,,,
2387,6,120.656974,42.84332,奈曼旗,,150525,0475,150525000000,,,,,,,,,,1229,2,100,1004,1229,2387,,,,
2388,6,120.906089,44.55468,扎鲁特旗,,150526,0475,150526000000,,,,,,,,,,1229,2,100,1004,1229,2388,,,,
2389,6,122.243441,43.649465,通辽经济技术开发区,,150502,0475,150571000000,,,,,,,,,,1229,2,100,1004,1229,2389,,,,
2390,6,119.656911,45.529889,霍林郭勒市,,150581,0475,150581000000,,,霍林郭勒,,,,,,,1229,2,100,1004,1229,2390,,,,
2391,6,109.957712,39.821543,东胜区,,150602,0477,150602000000,,,东胜,,,,,,,1230,2,100,1004,1230,2391,,,,
2392,6,109.775614,39.607248,康巴什区,,150600,0477,150603000000,,,康巴什,,,,,,,1230,2,100,1004,1230,2392,,,,
2393,6,110.027877,40.411197,达拉特旗,,150621,0477,150621000000,,,,,,,,,,1230,2,100,1004,1230,2393,,,,
2394,6,111.23362,39.86326,准格尔旗,,150622,0477,150622000000,,,,,,,,,,1230,2,100,1004,1230,2394,,,,
2395,6,107.472303,38.181809,鄂托克前旗,,150623,0477,150623000000,,,,,,,,,,1230,2,100,1004,1230,2395,,,,
2396,6,107.971088,39.088956,鄂托克旗,,150624,0477,150624000000,,,,,,,,,,1230,2,100,1004,1230,2396,,,,
2397,6,108.730984,39.832271,杭锦旗,,150625,0477,150625000000,,,,,,,,,,1230,2,100,1004,1230,2397,,,,
2398,6,108.812551,38.603675,乌审旗,,150626,0477,150626000000,,,,,,,,,,1230,2,100,1004,1230,2398,,,,
2399,6,109.742011,39.563635,伊金霍洛旗,,150627,0477,150627000000,,,,,,,,,,1230,2,100,1004,1230,2399,,,,
2400,6,119.728907,49.210248,海拉尔区,,150702,0470,150702000000,,,海拉尔,,,,,,,1231,2,100,1004,1231,2400,,,,
2401,6,117.662364,49.508635,扎赉诺尔区,,150703,0470,150703000000,,,扎赉诺尔,,,,,,,1231,2,100,1004,1231,2401,,,,
2402,6,123.451938,48.12437,阿荣旗,,150721,0470,150721000000,,,,,,,,,,1231,2,100,1004,1231,2402,,,,
2403,6,124.512203,48.475746,莫力达瓦达斡尔族自治旗,,150722,0470,150722000000,,,,,,,,,,1231,2,100,1004,1231,2403,,,,
2404,6,123.718735,50.590402,鄂伦春自治旗,,150723,0470,150723000000,,,,,,,,,,1231,2,100,1004,1231,2404,,,,
2405,6,119.747867,49.144647,鄂温克族自治旗,,150724,0470,150724000000,,,,,,,,,,1231,2,100,1004,1231,2405,,,,
2406,6,119.416147,49.326811,陈巴尔虎旗,,150725,0470,150725000000,,,,,,,,,,1231,2,100,1004,1231,2406,,,,
2407,6,118.262338,48.216321,新巴尔虎左旗,,150726,0470,150726000000,,,,,,,,,,1231,2,100,1004,1231,2407,,,,
2408,6,116.816333,48.67039,新巴尔虎右旗,,150727,0470,150727000000,,,,,,,,,,1231,2,100,1004,1231,2408,,,,
2409,6,117.370232,49.595873,满洲里市,,150781,0470,150781000000,,,满洲里,,,,,,,1231,2,100,1004,1231,2409,,,,
2410,6,120.729182,49.291251,牙克石市,,150782,0470,150782000000,,,牙克石,,,,,,,1231,2,100,1004,1231,2410,,,,
2411,6,122.731121,48.011616,扎兰屯市,,150783,0470,150783000000,,,扎兰屯,,,,,,,1231,2,100,1004,1231,2411,,,,
2412,6,120.173291,50.241552,额尔古纳市,,150784,0470,150784000000,,,额尔古纳,,,,,,,1231,2,100,1004,1231,2412,,,,
2413,6,121.513488,50.779034,根河市,,150785,0470,150785000000,,,根河,,,,,,,1231,2,100,1004,1231,2413,,,,
2414,6,107.358367,40.749759,临河区,,150802,0478,150802000000,,,临河,,,,,,,1232,2,100,1004,1232,2414,,,,
2415,6,108.262271,41.086847,五原县,,150821,0478,150821000000,,,五原,,,,,,,1232,2,100,1004,1232,2415,,,,
2416,6,107.003161,40.329451,磴口县,,150822,0478,150822000000,,,磴口,,,,,,,1232,2,100,1004,1232,2416,,,,
2417,6,108.647006,40.735868,乌拉特前旗,,150823,0478,150823000000,,,,,,,,,,1232,2,100,1004,1232,2417,,,,
2418,6,108.508363,41.585904,乌拉特中旗,,150824,0478,150824000000,,,,,,,,,,1232,2,100,1004,1232,2418,,,,
2419,6,107.069205,41.082573,乌拉特后旗,,150825,0478,150825000000,,,,,,,,,,1232,2,100,1004,1232,2419,,,,
2420,6,107.145506,40.88439,杭锦后旗,,150826,0478,150826000000,,,,,,,,,,1232,2,100,1004,1232,2420,,,,
2421,6,113.116502,40.988914,集宁区,,150902,0474,150902000000,,,集宁,,,,,,,1233,2,100,1004,1233,2421,,,,
2422,6,112.570905,40.893358,卓资县,,150921,0474,150921000000,,,卓资,,,,,,,1233,2,100,1004,1233,2422,,,,
2423,6,114.003536,41.902498,化德县,,150922,0474,150922000000,,,化德,,,,,,,1233,2,100,1004,1233,2423,,,,
2424,6,113.570931,41.560304,商都县,,150923,0474,150923000000,,,商都,,,,,,,1233,2,100,1004,1233,2424,,,,
2425,6,113.827449,40.870886,兴和县,,150924,0474,150924000000,,,兴和,,,,,,,1233,2,100,1004,1233,2425,,,,
2426,6,112.497191,40.530313,凉城县,,150925,0474,150925000000,,,凉城,,,,,,,1233,2,100,1004,1233,2426,,,,
2427,6,113.207658,40.784172,察哈尔右翼前旗,,150926,0474,150926000000,,,,,,,,,,1233,2,100,1004,1233,2427,,,,
2428,6,112.628865,41.275801,察哈尔右翼中旗,,150927,0474,150927000000,,,,,,,,,,1233,2,100,1004,1233,2428,,,,
2429,6,113.183825,41.434086,察哈尔右翼后旗,,150928,0474,150928000000,,,,,,,,,,1233,2,100,1004,1233,2429,,,,
2430,6,111.699653,41.531566,四子王旗,,150929,0474,150929000000,,,,,,,,,,1233,2,100,1004,1233,2430,,,,
2431,6,113.102683,40.435576,丰镇市,,150981,0474,150981000000,,,丰镇,,,,,,,1233,2,100,1004,1233,2431,,,,
2432,6,122.086909,46.070678,乌兰浩特市,,152201,0482,152201000000,,,乌兰浩特,,,,,,,1234,2,100,1004,1234,2432,,,,
2433,6,119.937003,47.175552,阿尔山市,,152202,0482,152202000000,,,阿尔山,,,,,,,1234,2,100,1004,1234,2433,,,,
2434,6,121.946725,46.078075,科尔沁右翼前旗,,152221,0482,152221000000,,,,,,,,,,1234,2,100,1004,1234,2434,,,,
2435,6,121.47043,45.058818,科尔沁右翼中旗,,152222,0482,152222000000,,,,,,,,,,1234,2,100,1004,1234,2435,,,,
2436,6,122.893662,46.721523,扎赉特旗,,152223,0482,152223000000,,,,,,,,,,1234,2,100,1004,1234,2436,,,,
2437,6,121.588026,45.380111,突泉县,,152224,0482,152224000000,,,突泉,,,,,,,1234,2,100,1004,1234,2437,,,,
2438,6,111.970727,43.651141,二连浩特市,,152501,0479,152501000000,,,二连浩特,,,,,,,1235,2,100,1004,1235,2438,,,,
2439,6,116.07914,43.931172,锡林浩特市,,152502,0479,152502000000,,,锡林浩特,,,,,,,1235,2,100,1004,1235,2439,,,,
2440,6,114.943616,44.021157,阿巴嘎旗,,152522,0479,152522000000,,,,,,,,,,1235,2,100,1004,1235,2440,,,,
2441,6,113.659968,43.857946,苏尼特左旗,,152523,0479,152523000000,,,,,,,,,,1235,2,100,1004,1235,2441,,,,
2442,6,112.634852,42.741027,苏尼特右旗,,152524,0479,152524000000,,,,,,,,,,1235,2,100,1004,1235,2442,,,,
2443,6,116.967574,45.496421,东乌珠穆沁旗,,152525,0479,152525000000,,,,,,,,,,1235,2,100,1004,1235,2443,,,,
2444,6,117.602033,44.586265,西乌珠穆沁旗,,152526,0479,152526000000,,,,,,,,,,1235,2,100,1004,1235,2444,,,,
2445,6,115.276383,41.875053,太仆寺旗,,152527,0479,152527000000,,,,,,,,,,1235,2,100,1004,1235,2445,,,,
2446,6,113.840416,42.230508,镶黄旗,,152528,0479,152528000000,,,,,,,,,,1235,2,100,1004,1235,2446,,,,
2447,6,115.023151,42.285367,正镶白旗,,152529,0479,152529000000,,,,,,,,,,1235,2,100,1004,1235,2447,,,,
2448,6,115.986059,42.239616,正蓝旗,,152530,0479,152530000000,,,,,,,,,,1235,2,100,1004,1235,2448,,,,
2449,6,116.479193,42.201488,多伦县,,152531,0479,152531000000,,,多伦,,,,,,,1235,2,100,1004,1235,2449,,,,
2450,6,118.824931,45.718726,乌拉盖管委会,,152525,0479,152571000000,,,,,,,,,,1235,2,100,1004,1235,2450,,,,
2451,6,105.662181,38.832953,阿拉善左旗,,152921,0483,152921000000,,,,,,,,,,1236,2,100,1004,1236,2451,,,,
2452,6,101.664958,39.215589,阿拉善右旗,,152922,0483,152922000000,,,,,,,,,,1236,2,100,1004,1236,2452,,,,
2453,6,101.053376,41.952492,额济纳旗,,152923,0483,152923000000,,,,,,,,,,1236,2,100,1004,1236,2453,,,,
2454,6,106.685881,39.437353,内蒙古阿拉善经济开发区,,152921,0483,152971000000,,,,,,,,,,1236,2,100,1004,1236,2454,,,,
2455,6,123.389538,41.787005,和平区,,210102,024,210102000000,,,和平,,,,,,,1237,2,100,1005,1237,2455,,,,
2456,6,123.45282,41.793277,沈河区,,210103,024,210103000000,,,沈河,,,,,,,1237,2,100,1005,1237,2456,,,,
2457,6,123.50295,41.810932,大东区,,210104,024,210104000000,,,大东,,,,,,,1237,2,100,1005,1237,2457,,,,
2458,6,123.435849,41.822383,皇姑区,,210105,024,210105000000,,,皇姑,,,,,,,1237,2,100,1005,1237,2458,,,,
2459,6,123.370184,41.800482,铁西区,,210106,024,210106000000,,,铁西,,,,,,,1237,2,100,1005,1237,2459,,,,
2460,6,123.338014,41.662387,苏家屯区,,210111,024,210111000000,,,苏家屯,,,,,,,1237,2,100,1005,1237,2460,,,,
2461,6,123.443626,41.712523,浑南区,,210112,024,210112000000,,,浑南,,,,,,,1237,2,100,1005,1237,2461,,,,
2462,6,123.577464,41.910403,沈北新区,,210113,024,210113000000,,,沈北新,,,,,,,1237,2,100,1005,1237,2462,,,,
2463,6,123.302211,41.791427,于洪区,,210114,024,210114000000,,,于洪,,,,,,,1237,2,100,1005,1237,2463,,,,
2464,6,122.760015,41.514641,辽中区,,210115,024,210115000000,,,辽中,,,,,,,1237,2,100,1005,1237,2464,,,,
2465,6,123.349497,42.738579,康平县,,210123,024,210123000000,,,康平,,,,,,,1237,2,100,1005,1237,2465,,,,
2466,6,123.434274,42.498345,法库县,,210124,024,210124000000,,,法库,,,,,,,1237,2,100,1005,1237,2466,,,,
2467,6,122.720124,41.930417,新民市,,210181,024,210181000000,,,新民,,,,,,,1237,2,100,1005,1237,2467,,,,
2468,6,121.639944,38.917757,中山区,,210202,0411,210202000000,,,中山,,,,,,,1238,2,100,1005,1238,2468,,,,
2469,6,121.607383,38.913911,西岗区,,210203,0411,210203000000,,,西岗,,,,,,,1238,2,100,1005,1238,2469,,,,
2470,6,121.589261,38.904042,沙河口区,,210204,0411,210204000000,,,沙河口,,,,,,,1238,2,100,1005,1238,2470,,,,
2471,6,121.520364,38.952448,甘井子区,,210211,0411,210211000000,,,甘井子,,,,,,,1238,2,100,1005,1238,2471,,,,
2472,6,121.256772,38.850789,旅顺口区,,210212,0411,210212000000,,,旅顺口,,,,,,,1238,2,100,1005,1238,2472,,,,
2473,6,121.777657,39.049436,金州区,,210213,0411,210213000000,,,金州,,,,,,,1238,2,100,1005,1238,2473,,,,
2474,6,122.256715,39.740544,普兰店区,,210214,0411,210214000000,,,普兰店,,,,,,,1238,2,100,1005,1238,2474,,,,
2475,6,122.583696,39.271718,长海县,,210224,0411,210224000000,,,长海,,,,,,,1238,2,100,1005,1238,2475,,,,
2476,6,121.974555,39.62586,瓦房店市,,210281,0411,210281000000,,,瓦房店,,,,,,,1238,2,100,1005,1238,2476,,,,
2477,6,122.962127,39.679559,庄河市,,210283,0411,210283000000,,,庄河,,,,,,,1238,2,100,1005,1238,2477,,,,
2478,6,122.98557,41.088039,铁东区,,210302,0412,210302000000,,,铁东,,,,,,,1239,2,100,1005,1239,2478,,,,
2479,6,122.964243,41.118027,铁西区,,210303,0412,210303000000,,,铁西,,,,,,,1239,2,100,1005,1239,2479,,,,
2480,6,123.023423,41.148345,立山区,,210304,0412,210304000000,,,立山,,,,,,,1239,2,100,1005,1239,2480,,,,
2481,6,122.943997,41.067142,千山区,,210311,0412,210311000000,,,千山,,,,,,,1239,2,100,1005,1239,2481,,,,
2482,6,122.430735,41.410474,台安县,,210321,0412,210321000000,,,台安,,,,,,,1239,2,100,1005,1239,2482,,,,
2483,6,123.275279,40.289448,岫岩满族自治县,,210323,0412,210323000000,,,,,,,,,,1239,2,100,1005,1239,2483,,,,
2484,6,122.680037,40.880709,海城市,,210381,0412,210381000000,,,海城,,,,,,,1239,2,100,1005,1239,2484,,,,
2485,6,123.907161,41.859988,新抚区,,210402,0413,210402000000,,,新抚,,,,,,,1240,2,100,1005,1240,2485,,,,
2486,6,124.032632,41.850806,东洲区,,210403,0413,210403000000,,,东洲,,,,,,,1240,2,100,1005,1240,2486,,,,
2487,6,123.778267,41.851396,望花区,,210404,0413,210404000000,,,望花,,,,,,,1240,2,100,1005,1240,2487,,,,
2488,6,123.939295,41.881244,顺城区,,210411,0413,210411000000,,,顺城,,,,,,,1240,2,100,1005,1240,2488,,,,
2489,6,124.091832,41.920183,抚顺县,,210421,0413,210421000000,,,抚顺,,,,,,,1240,2,100,1005,1240,2489,,,,
2490,6,125.033837,41.731847,新宾满族自治县,,210422,0413,210422000000,,,,,,,,,,1240,2,100,1005,1240,2490,,,,
2491,6,124.918323,42.098434,清原满族自治县,,210423,0413,210423000000,,,,,,,,,,1240,2,100,1005,1240,2491,,,,
2492,6,123.763042,41.297609,平山区,,210502,0414,210502000000,,,平山,,,,,,,1241,2,100,1005,1241,2492,,,,
2493,6,123.761757,41.327106,溪湖区,,210503,0414,210503000000,,,溪湖,,,,,,,1241,2,100,1005,1241,2493,,,,
2494,6,123.811422,41.306677,明山区,,210504,0414,210504000000,,,明山,,,,,,,1241,2,100,1005,1241,2494,,,,
2495,6,123.738934,41.098498,南芬区,,210505,0414,210505000000,,,南芬,,,,,,,1241,2,100,1005,1241,2495,,,,
2496,6,124.114398,41.299608,本溪满族自治县,,210521,0414,210521000000,,,,,,,,,,1241,2,100,1005,1241,2496,,,,
2497,6,125.354791,41.264861,桓仁满族自治县,,210522,0414,210522000000,,,,,,,,,,1241,2,100,1005,1241,2497,,,,
2498,6,124.389916,40.134921,元宝区,,210602,0415,210602000000,,,元宝,,,,,,,1242,2,100,1005,1242,2498,,,,
2499,6,124.354468,40.103632,振兴区,,210603,0415,210603000000,,,振兴,,,,,,,1242,2,100,1005,1242,2499,,,,
2500,6,124.422338,40.15668,振安区,,210604,0415,210604000000,,,振安,,,,,,,1242,2,100,1005,1242,2500,,,,
2501,6,124.777941,40.729671,宽甸满族自治县,,210624,0415,210624000000,,,,,,,,,,1242,2,100,1005,1242,2501,,,,
2502,6,124.146927,39.861486,东港市,,210681,0415,210681000000,,,东港,,,,,,,1242,2,100,1005,1242,2502,,,,
2503,6,124.060995,40.450649,凤城市,,210682,0415,210682000000,,,凤城,,,,,,,1242,2,100,1005,1242,2503,,,,
2504,6,121.122635,41.115179,古塔区,,210702,0416,210702000000,,,古塔,,,,,,,1243,2,100,1005,1243,2504,,,,
2505,6,121.145273,41.112959,凌河区,,210703,0416,210703000000,,,凌河,,,,,,,1243,2,100,1005,1243,2505,,,,
2506,6,121.098231,41.107071,太和区,,210711,0416,210711000000,,,太和,,,,,,,1243,2,100,1005,1243,2506,,,,
2507,6,122.117894,41.66364,黑山县,,210726,0416,210726000000,,,黑山,,,,,,,1243,2,100,1005,1243,2507,,,,
2508,6,121.233579,41.530925,义县,,210727,0416,210727000000,,,,,,,,,,1243,2,100,1005,1243,2508,,,,
2509,6,121.352069,41.171303,凌海市,,210781,0416,210781000000,,,凌海,,,,,,,1243,2,100,1005,1243,2509,,,,
2510,6,121.79057,41.596607,北镇市,,210782,0416,210782000000,,,北镇,,,,,,,1243,2,100,1005,1243,2510,,,,
2511,6,122.253796,40.671103,站前区,,210802,0417,210802000000,,,站前,,,,,,,1244,2,100,1005,1244,2511,,,,
2512,6,122.201197,40.664814,西市区,,210803,0417,210803000000,,,西市,,,,,,,1244,2,100,1005,1244,2512,,,,
2513,6,122.102427,40.229078,鲅鱼圈区,,210804,0417,210804000000,,,鲅鱼圈,,,,,,,1244,2,100,1005,1244,2513,,,,
2514,6,122.374582,40.678554,老边区,,210811,0417,210811000000,,,老边,,,,,,,1244,2,100,1005,1244,2514,,,,
2515,6,122.343641,40.399053,盖州市,,210881,0417,210881000000,,,盖州,,,,,,,1244,2,100,1005,1244,2515,,,,
2516,6,122.503997,40.643096,大石桥市,,210882,0417,210882000000,,,大石桥,,,,,,,1244,2,100,1005,1244,2516,,,,
2517,6,121.650878,42.011157,海州区,,210902,0418,210902000000,,,海州,,,,,,,1245,2,100,1005,1245,2517,,,,
2518,6,121.787072,42.085461,新邱区,,210903,0418,210903000000,,,新邱,,,,,,,1245,2,100,1005,1245,2518,,,,
2519,6,121.673086,42.008472,太平区,,210904,0418,210904000000,,,太平,,,,,,,1245,2,100,1005,1245,2519,,,,
2520,6,121.410318,41.780707,清河门区,,210905,0418,210905000000,,,清河门,,,,,,,1245,2,100,1005,1245,2520,,,,
2521,6,121.675107,42.023365,细河区,,210911,0418,210911000000,,,细河,,,,,,,1245,2,100,1005,1245,2521,,,,
2522,6,121.752386,42.062971,阜新蒙古族自治县,,210921,0418,210921000000,,,,,,,,,,1245,2,100,1005,1245,2522,,,,
2523,6,122.533542,42.38445,彰武县,,210922,0418,210922000000,,,彰武,,,,,,,1245,2,100,1005,1245,2523,,,,
2524,6,123.16852,41.268192,白塔区,,211002,0419,211002000000,,,白塔,,,,,,,1246,2,100,1005,1246,2524,,,,
2525,6,123.179601,41.260479,文圣区,,211002,0419,211003000000,,,文圣,,,,,,,1246,2,100,1005,1246,2525,,,,
2526,6,123.190911,41.215572,宏伟区,,211004,0419,211004000000,,,宏伟,,,,,,,1246,2,100,1005,1246,2526,,,,
2527,6,123.413748,41.149687,弓长岭区,,211005,0419,211005000000,,,弓长岭,,,,,,,1246,2,100,1005,1246,2527,,,,
2528,6,123.175992,41.251148,太子河区,,211002,0419,211011000000,,,太子河,,,,,,,1246,2,100,1005,1246,2528,,,,
2529,6,123.099827,41.203129,辽阳县,,211021,0419,211021000000,,,辽阳,,,,,,,1246,2,100,1005,1246,2529,,,,
2530,6,123.333342,41.424093,灯塔市,,211081,0419,211081000000,,,灯塔,,,,,,,1246,2,100,1005,1246,2530,,,,
2531,6,122.054627,41.188473,双台子区,,211102,0427,211102000000,,,双台子,,,,,,,1247,2,100,1005,1247,2531,,,,
2532,6,122.064401,41.156555,兴隆台区,,211103,0427,211103000000,,,兴隆台,,,,,,,1247,2,100,1005,1247,2532,,,,
2533,6,122.065222,41.117905,大洼区,,211100,0427,211104000000,,,大洼,,,,,,,1247,2,100,1005,1247,2533,,,,
2534,6,121.991199,41.240866,盘山县,,211122,0427,211122000000,,,盘山,,,,,,,1247,2,100,1005,1247,2534,,,,
2535,6,123.836448,42.284014,银州区,,211202,0410,211202000000,,,银州,,,,,,,1248,2,100,1005,1248,2535,,,,
2536,6,123.720155,42.221542,清河区,,211200,0410,211204000000,,,清河,,,,,,,1248,2,100,1005,1248,2536,,,,
2537,6,123.72299,42.221154,铁岭县,,211221,0410,211221000000,,,铁岭,,,,,,,1248,2,100,1005,1248,2537,,,,
2538,6,124.721401,42.735724,西丰县,,211223,0410,211223000000,,,西丰,,,,,,,1248,2,100,1005,1248,2538,,,,
2539,6,124.104836,42.783295,昌图县,,211224,0410,211224000000,,,昌图,,,,,,,1248,2,100,1005,1248,2539,,,,
2540,6,123.561288,42.465452,调兵山市,,211281,0410,211281000000,,,调兵山,,,,,,,1248,2,100,1005,1248,2540,,,,
2541,6,124.032117,42.543945,开原市,,211282,0410,211282000000,,,开原,,,,,,,1248,2,100,1005,1248,2541,,,,
2542,6,120.448076,41.56335,双塔区,,211302,0421,211302000000,,,双塔,,,,,,,1249,2,100,1005,1249,2542,,,,
2543,6,120.40761,41.574413,龙城区,,211303,0421,211303000000,,,龙城,,,,,,,1249,2,100,1005,1249,2543,,,,
2544,6,120.384092,41.49546,朝阳县,,211321,0421,211321000000,,,朝阳,,,,,,,1249,2,100,1005,1249,2544,,,,
2545,6,119.637297,41.40121,建平县,,211322,0421,211322000000,,,建平,,,,,,,1249,2,100,1005,1249,2545,,,,
2546,6,119.735162,41.126276,喀喇沁左翼蒙古族自治县,,211324,0421,211324000000,,,,,,,,,,1249,2,100,1005,1249,2546,,,,
2547,6,120.765288,41.798494,北票市,,211381,0421,211381000000,,,北票,,,,,,,1249,2,100,1005,1249,2547,,,,
2548,6,119.395052,41.243303,凌源市,,211382,0421,211382000000,,,凌源,,,,,,,1249,2,100,1005,1249,2548,,,,
2549,6,120.864114,40.773016,连山区,,211402,0429,211402000000,,,连山,,,,,,,1250,2,100,1005,1250,2549,,,,
2550,6,120.888697,40.734124,龙港区,,211403,0429,211403000000,,,龙港,,,,,,,1250,2,100,1005,1250,2550,,,,
2551,6,120.744362,41.105226,南票区,,211404,0429,211404000000,,,南票,,,,,,,1250,2,100,1005,1250,2551,,,,
2552,6,120.338654,40.324179,绥中县,,211421,0429,211421000000,,,绥中,,,,,,,1250,2,100,1005,1250,2552,,,,
2553,6,119.831332,40.822856,建昌县,,211422,0429,211422000000,,,建昌,,,,,,,1250,2,100,1005,1250,2553,,,,
2554,6,120.723015,40.613278,兴城市,,211481,0429,211481000000,,,兴城,,,,,,,1250,2,100,1005,1250,2554,,,,
2555,6,125.343588,43.861514,南关区,,220102,0431,220102000000,,,南关,,,,,,,1251,2,100,1006,1251,2555,,,,
2556,6,125.320043,43.941229,宽城区,,220103,0431,220103000000,,,宽城,,,,,,,1251,2,100,1006,1251,2556,,,,
2557,6,125.281897,43.83113,朝阳区,,220104,0431,220104000000,,,朝阳,,,,,,,1251,2,100,1006,1251,2557,,,,
2558,6,125.367583,43.863086,二道区,,220105,0431,220105000000,,,二道,,,,,,,1251,2,100,1006,1251,2558,,,,
2559,6,125.249749,43.878645,绿园区,,220106,0431,220106000000,,,绿园,,,,,,,1251,2,100,1006,1251,2559,,,,
2560,6,125.658521,43.522932,双阳区,,220112,0431,220112000000,,,双阳,,,,,,,1251,2,100,1006,1251,2560,,,,
2561,6,125.833446,44.149676,九台区,,220113,0431,220113000000,,,九台,,,,,,,1251,2,100,1006,1251,2561,,,,
2562,6,125.178191,44.430784,农安县,,220122,0431,220122000000,,,农安,,,,,,,1251,2,100,1006,1251,2562,,,,
2563,6,125.420549,43.876511,长春经济技术开发区,,220102,0431,220171000000,,,,,,,,,,1251,2,100,1006,1251,2563,,,,
2564,6,125.418087,43.763937,长春净月高新技术产业开发区,,220102,0431,220172000000,,,,,,,,,,1251,2,100,1006,1251,2564,,,,
2565,6,125.407831,43.974644,长春高新技术产业开发区,,220103,0431,220173000000,,,,,,,,,,1251,2,100,1006,1251,2565,,,,
2566,6,125.237714,43.87216,长春汽车经济技术开发区,,220106,0431,220174000000,,,,,,,,,,1251,2,100,1006,1251,2566,,,,
2567,6,126.527251,44.838339,榆树市,,220182,0431,220182000000,,,榆树,,,,,,,1251,2,100,1006,1251,2567,,,,
2568,6,125.722217,44.519766,德惠市,,220183,0431,220183000000,,,德惠,,,,,,,1251,2,100,1006,1251,2568,,,,
2569,6,126.569069,43.879628,昌邑区,,220202,0432,220202000000,,,昌邑,,,,,,,1252,2,100,1006,1252,2569,,,,
2570,6,126.556529,43.908614,龙潭区,,220203,0432,220203000000,,,龙潭,,,,,,,1252,2,100,1006,1252,2570,,,,
2571,6,126.53525,43.83117,船营区,,220204,0432,220204000000,,,船营,,,,,,,1252,2,100,1006,1252,2571,,,,
2572,6,126.556619,43.819361,丰满区,,220211,0432,220211000000,,,丰满,,,,,,,1252,2,100,1006,1252,2572,,,,
2573,6,126.491878,43.670111,永吉县,,220221,0432,220221000000,,,永吉,,,,,,,1252,2,100,1006,1252,2573,,,,
2574,6,126.463199,43.987577,吉林经济开发区,,220202,0432,220271000000,,,,,,,,,,1252,2,100,1006,1252,2574,,,,
2575,6,126.595886,43.790074,吉林高新技术产业开发区,,220211,0432,220272000000,,,,,,,,,,1252,2,100,1006,1252,2575,,,,
2576,6,125.985928,43.72316,吉林中国新加坡食品区,,220221,0432,220273000000,,,吉林中国新加坡食品,,,,,,,1252,2,100,1006,1252,2576,,,,
2577,6,127.338163,43.721124,蛟河市,,220281,0432,220281000000,,,蛟河,,,,,,,1252,2,100,1006,1252,2577,,,,
2578,6,126.740537,42.969653,桦甸市,,220282,0432,220282000000,,,桦甸,,,,,,,1252,2,100,1006,1252,2578,,,,
2579,6,126.959662,44.404112,舒兰市,,220283,0432,220283000000,,,舒兰,,,,,,,1252,2,100,1006,1252,2579,,,,
2580,6,126.054266,42.943713,磐石市,,220284,0432,220284000000,,,磐石,,,,,,,1252,2,100,1006,1252,2580,,,,
2581,6,124.339531,43.143592,铁西区,,220302,0434,220302000000,,,铁西,,,,,,,1253,2,100,1006,1253,2581,,,,
2582,6,124.403356,43.159422,铁东区,,220303,0434,220303000000,,,铁东,,,,,,,1253,2,100,1006,1253,2582,,,,
2583,6,124.329199,43.304488,梨树县,,220322,0434,220322000000,,,梨树,,,,,,,1253,2,100,1006,1253,2583,,,,
2584,6,125.299009,43.343209,伊通满族自治县,,220323,0434,220323000000,,,,,,,,,,1253,2,100,1006,1253,2584,,,,
2585,6,124.816791,43.502302,公主岭市,,220381,0434,220381000000,,,公主岭,,,,,,,1253,2,100,1006,1253,2585,,,,
2586,6,123.496548,43.515878,双辽市,,220382,0434,220382000000,,,双辽,,,,,,,1253,2,100,1006,1253,2586,,,,
2587,6,125.130041,42.898999,龙山区,,220402,0437,220402000000,,,龙山,,,,,,,1254,2,100,1006,1254,2587,,,,
2588,6,125.142891,42.924741,西安区,,220403,0437,220403000000,,,西安,,,,,,,1254,2,100,1006,1254,2588,,,,
2589,6,125.524907,42.674706,东丰县,,220421,0437,220421000000,,,东丰,,,,,,,1254,2,100,1006,1254,2589,,,,
2590,6,124.985412,42.923972,东辽县,,220422,0437,220422000000,,,东辽,,,,,,,1254,2,100,1006,1254,2590,,,,
2591,6,125.949416,41.726302,东昌区,,220502,0435,220502000000,,,东昌,,,,,,,1255,2,100,1006,1255,2591,,,,
2592,6,126.036581,41.77161,二道江区,,220503,0435,220503000000,,,二道江,,,,,,,1255,2,100,1006,1255,2592,,,,
2593,6,125.753292,41.677502,通化县,,220521,0435,220521000000,,,通化,,,,,,,1255,2,100,1006,1255,2593,,,,
2594,6,126.040816,42.682531,辉南县,,220523,0435,220523000000,,,辉南,,,,,,,1255,2,100,1006,1255,2594,,,,
2595,6,125.738672,42.282323,柳河县,,220524,0435,220524000000,,,柳河,,,,,,,1255,2,100,1006,1255,2595,,,,
2596,6,125.677798,42.52812,梅河口市,,220581,0435,220581000000,,,梅河口,,,,,,,1255,2,100,1006,1255,2596,,,,
2597,6,126.18835,41.123227,集安市,,220582,0435,220582000000,,,集安,,,,,,,1255,2,100,1006,1255,2597,,,,
2598,6,126.410229,41.942897,浑江区,,220602,0439,220602000000,,,浑江,,,,,,,1256,2,100,1006,1256,2598,,,,
2599,6,126.585773,42.054632,江源区,,220605,0439,220605000000,,,江源,,,,,,,1256,2,100,1006,1256,2599,,,,
2600,6,127.443609,42.218743,抚松县,,220621,0439,220621000000,,,抚松,,,,,,,1256,2,100,1006,1256,2600,,,,
2601,6,126.808003,42.386518,靖宇县,,220622,0439,220622000000,,,靖宇,,,,,,,1256,2,100,1006,1256,2601,,,,
2602,6,128.194902,41.417698,长白朝鲜族自治县,,220623,0439,220623000000,,,,,,,,,,1256,2,100,1006,1256,2602,,,,
2603,6,126.91265,41.809811,临江市,,220681,0439,220681000000,,,临江,,,,,,,1256,2,100,1006,1256,2603,,,,
2604,6,124.810744,45.169801,宁江区,,220702,0438,220702000000,,,宁江,,,,,,,1257,2,100,1006,1257,2604,,,,
2605,6,124.816954,45.116061,前郭尔罗斯蒙古族自治县,,220721,0438,220721000000,,,,,,,,,,1257,2,100,1006,1257,2605,,,,
2606,6,123.96133,44.273922,长岭县,,220722,0438,220722000000,,,长岭,,,,,,,1257,2,100,1006,1257,2606,,,,
2607,6,124.034601,45.001652,乾安县,,220723,0438,220723000000,,,乾安,,,,,,,1257,2,100,1006,1257,2607,,,,
2608,6,124.81883,45.139819,吉林松原经济开发区,,220700,0438,220771000000,,,,,,,,,,1257,2,100,1006,1257,2608,,,,
2609,6,126.043312,44.986257,扶余市,,220781,0438,220781000000,,,扶余,,,,,,,1257,2,100,1006,1257,2609,,,,
2610,6,122.845178,45.619829,洮北区,,220802,0436,220802000000,,,洮北,,,,,,,1258,2,100,1006,1258,2610,,,,
2611,6,123.193447,45.845417,镇赉县,,220821,0436,220821000000,,,镇赉,,,,,,,1258,2,100,1006,1258,2611,,,,
2612,6,123.081859,44.810781,通榆县,,220822,0436,220822000000,,,通榆,,,,,,,1258,2,100,1006,1258,2612,,,,
2613,6,122.828289,45.597998,吉林白城经济开发区,,220802,0436,220871000000,,,,,,,,,,1258,2,100,1006,1258,2613,,,,
2614,6,122.77786,45.337101,洮南市,,220881,0436,220881000000,,,洮南,,,,,,,1258,2,100,1006,1258,2614,,,,
2615,6,124.286189,45.504887,大安市,,220882,0436,220882000000,,,大安,,,,,,,1258,2,100,1006,1258,2615,,,,
2616,6,129.502015,42.888795,延吉市,,222401,1433,222401000000,,,延吉,,,,,,,1259,2,100,1006,1259,2616,,,,
2617,6,129.836837,42.965645,图们市,,222402,1433,222402000000,,,图们,,,,,,,1259,2,100,1006,1259,2617,,,,
2618,6,128.225885,43.369839,敦化市,,222403,1433,222403000000,,,敦化,,,,,,,1259,2,100,1006,1259,2618,,,,
2619,6,130.358865,42.860164,珲春市,,222404,1433,222404000000,,,珲春,,,,,,,1259,2,100,1006,1259,2619,,,,
2620,6,129.419932,42.763698,龙井市,,222405,1433,222405000000,,,龙井,,,,,,,1259,2,100,1006,1259,2620,,,,
2621,6,129.003567,42.544266,和龙市,,222406,1433,222406000000,,,和龙,,,,,,,1259,2,100,1006,1259,2621,,,,
2622,6,129.764518,43.309926,汪清县,,222424,1433,222424000000,,,汪清,,,,,,,1259,2,100,1006,1259,2622,,,,
2623,6,128.893587,43.109605,安图县,,222426,1433,222426000000,,,安图,,,,,,,1259,2,100,1006,1259,2623,,,,
2624,6,126.611034,45.753857,道里区,,230102,0451,230102000000,,,道里,,,,,,,1260,2,100,1007,1260,2624,,,,
2625,6,126.662747,45.757972,南岗区,,230103,0451,230103000000,,,南岗,,,,,,,1260,2,100,1007,1260,2625,,,,
2626,6,126.643458,45.79016,道外区,,230104,0451,230104000000,,,道外,,,,,,,1260,2,100,1007,1260,2626,,,,
2627,6,126.631659,45.595923,平房区,,230108,0451,230108000000,,,平房,,,,,,,1260,2,100,1007,1260,2627,,,,
2628,6,126.504134,45.800706,松北区,,230109,0451,230109000000,,,松北,,,,,,,1260,2,100,1007,1260,2628,,,,
2629,6,126.656578,45.705717,香坊区,,230110,0451,230110000000,,,香坊,,,,,,,1260,2,100,1007,1260,2629,,,,
2630,6,126.581774,45.887554,呼兰区,,230111,0451,230111000000,,,呼兰,,,,,,,1260,2,100,1007,1260,2630,,,,
2631,6,126.952003,45.54664,阿城区,,230112,0451,230112000000,,,阿城,,,,,,,1260,2,100,1007,1260,2631,,,,
2632,6,126.306478,45.381065,双城区,,230113,0451,230113000000,,,双城,,,,,,,1260,2,100,1007,1260,2632,,,,
2633,6,129.560608,46.322671,依兰县,,230123,0451,230123000000,,,依兰,,,,,,,1260,2,100,1007,1260,2633,,,,
2634,6,128.822811,45.849661,方正县,,230124,0451,230124000000,,,方正,,,,,,,1260,2,100,1007,1260,2634,,,,
2635,6,127.459963,45.743699,宾县,,230125,0451,230125000000,,,,,,,,,,1260,2,100,1007,1260,2635,,,,
2636,6,127.396342,46.083179,巴彦县,,230126,0451,230126000000,,,巴彦,,,,,,,1260,2,100,1007,1260,2636,,,,
2637,6,128.036744,45.948386,木兰县,,230127,0451,230127000000,,,木兰,,,,,,,1260,2,100,1007,1260,2637,,,,
2638,6,128.742546,45.970336,通河县,,230128,0451,230128000000,,,通河,,,,,,,1260,2,100,1007,1260,2638,,,,
2639,6,128.325032,45.449606,延寿县,,230129,0451,230129000000,,,延寿,,,,,,,1260,2,100,1007,1260,2639,,,,
2640,6,128.003425,45.207398,尚志市,,230183,0451,230183000000,,,尚志,,,,,,,1260,2,100,1007,1260,2640,,,,
2641,6,127.1612,44.929813,五常市,,230184,0451,230184000000,,,五常,,,,,,,1260,2,100,1007,1260,2641,,,,
2642,6,123.950909,47.315219,龙沙区,,230202,0452,230202000000,,,龙沙,,,,,,,1261,2,100,1007,1261,2642,,,,
2643,6,123.948842,47.352267,建华区,,230203,0452,230203000000,,,建华,,,,,,,1261,2,100,1007,1261,2643,,,,
2644,6,123.971594,47.338366,铁锋区,,230204,0452,230204000000,,,铁锋,,,,,,,1261,2,100,1007,1261,2644,,,,
2645,6,123.815723,47.153106,昂昂溪区,,230205,0452,230205000000,,,昂昂溪,,,,,,,1261,2,100,1007,1261,2645,,,,
2646,6,123.622613,47.206852,富拉尔基区,,230206,0452,230206000000,,,富拉尔基,,,,,,,1261,2,100,1007,1261,2646,,,,
2647,6,122.881656,47.514833,碾子山区,,230207,0452,230207000000,,,碾子山,,,,,,,1261,2,100,1007,1261,2647,,,,
2648,6,123.746073,47.307338,梅里斯达斡尔族区,,230208,0452,230208000000,,,梅里斯达斡尔族,,,,,,,1261,2,100,1007,1261,2648,,,,
2649,6,123.198634,47.336437,龙江县,,230221,0452,230221000000,,,龙江,,,,,,,1261,2,100,1007,1261,2649,,,,
2650,6,125.299109,47.891255,依安县,,230223,0452,230223000000,,,依安,,,,,,,1261,2,100,1007,1261,2650,,,,
2651,6,123.409758,46.391665,泰来县,,230224,0452,230224000000,,,泰来,,,,,,,1261,2,100,1007,1261,2651,,,,
2652,6,123.50054,47.920253,甘南县,,230225,0452,230225000000,,,甘南,,,,,,,1261,2,100,1007,1261,2652,,,,
2653,6,124.467041,47.772228,富裕县,,230227,0452,230227000000,,,富裕,,,,,,,1261,2,100,1007,1261,2653,,,,
2654,6,125.869025,48.034996,克山县,,230229,0452,230229000000,,,克山,,,,,,,1261,2,100,1007,1261,2654,,,,
2655,6,126.242054,48.039845,克东县,,230230,0452,230230000000,,,克东,,,,,,,1261,2,100,1007,1261,2655,,,,
2656,6,126.093257,47.59335,拜泉县,,230231,0452,230231000000,,,拜泉,,,,,,,1261,2,100,1007,1261,2656,,,,
2657,6,124.877481,48.482228,讷河市,,230281,0452,230281000000,,,讷河,,,,,,,1261,2,100,1007,1261,2657,,,,
2658,6,130.973385,45.301875,鸡冠区,,230302,0467,230302000000,,,鸡冠,,,,,,,1262,2,100,1007,1262,2658,,,,
2659,6,130.897691,45.208615,恒山区,,230303,0467,230303000000,,,恒山,,,,,,,1262,2,100,1007,1262,2659,,,,
2660,6,130.836259,45.346632,滴道区,,230304,0467,230304000000,,,滴道,,,,,,,1262,2,100,1007,1262,2660,,,,
2661,6,130.689644,45.089887,梨树区,,230305,0467,230305000000,,,梨树,,,,,,,1262,2,100,1007,1262,2661,,,,
2662,6,131.003646,45.334677,城子河区,,230306,0467,230306000000,,,城子河,,,,,,,1262,2,100,1007,1262,2662,,,,
2663,6,130.470717,45.209797,麻山区,,230307,0467,230307000000,,,麻山,,,,,,,1262,2,100,1007,1262,2663,,,,
2664,6,131.116192,45.257989,鸡东县,,230321,0467,230321000000,,,鸡东,,,,,,,1262,2,100,1007,1262,2664,,,,
2665,6,132.930211,45.760572,虎林市,,230381,0467,230381000000,,,虎林,,,,,,,1262,2,100,1007,1262,2665,,,,
2666,6,131.839242,45.52762,密山市,,230382,0467,230382000000,,,密山,,,,,,,1262,2,100,1007,1262,2666,,,,
2667,6,130.286464,47.340042,向阳区,,230402,0468,230402000000,,,向阳,,,,,,,1263,2,100,1007,1263,2667,,,,
2668,6,130.266877,47.316377,工农区,,230403,0468,230403000000,,,工农,,,,,,,1263,2,100,1007,1263,2668,,,,
2669,6,130.279232,47.31271,南山区,,230404,0468,230404000000,,,南山,,,,,,,1263,2,100,1007,1263,2669,,,,
2670,6,130.231461,47.25048,兴安区,,230405,0468,230405000000,,,兴安,,,,,,,1263,2,100,1007,1263,2670,,,,
2671,6,130.309163,47.336061,东山区,,230406,0468,230406000000,,,东山,,,,,,,1263,2,100,1007,1263,2671,,,,
2672,6,130.295705,47.35521,兴山区,,230407,0468,230407000000,,,兴山,,,,,,,1263,2,100,1007,1263,2672,,,,
2673,6,130.820796,47.575134,萝北县,,230421,0468,230421000000,,,萝北,,,,,,,1263,2,100,1007,1263,2673,,,,
2674,6,131.845034,47.286826,绥滨县,,230422,0468,230422000000,,,绥滨,,,,,,,1263,2,100,1007,1263,2674,,,,
2675,6,131.150306,46.644122,尖山区,,230502,0469,230502000000,,,尖山,,,,,,,1264,2,100,1007,1264,2675,,,,
2676,6,131.15664,46.590519,岭东区,,230503,0469,230503000000,,,岭东,,,,,,,1264,2,100,1007,1264,2676,,,,
2677,6,131.326377,46.592111,四方台区,,230505,0469,230505000000,,,四方台,,,,,,,1264,2,100,1007,1264,2677,,,,
2678,6,131.393349,46.574885,宝山区,,230506,0469,230506000000,,,宝山,,,,,,,1264,2,100,1007,1264,2678,,,,
2679,6,131.132319,46.72609,集贤县,,230521,0469,230521000000,,,集贤,,,,,,,1264,2,100,1007,1264,2679,,,,
2680,6,131.800294,46.765183,友谊县,,230522,0469,230522000000,,,友谊,,,,,,,1264,2,100,1007,1264,2680,,,,
2681,6,132.189719,46.324775,宝清县,,230523,0469,230523000000,,,宝清,,,,,,,1264,2,100,1007,1264,2681,,,,
2682,6,134.006406,46.795872,饶河县,,230524,0469,230524000000,,,饶河,,,,,,,1264,2,100,1007,1264,2682,,,,
2683,6,125.107591,46.594255,萨尔图区,,230602,0459,230602000000,,,萨尔图,,,,,,,1265,2,100,1007,1265,2683,,,,
2684,6,125.128304,46.560175,龙凤区,,230603,0459,230603000000,,,龙凤,,,,,,,1265,2,100,1007,1265,2684,,,,
2685,6,124.864148,46.650592,让胡路区,,230604,0459,230604000000,,,让胡路,,,,,,,1265,2,100,1007,1265,2685,,,,
2686,6,124.884649,46.396709,红岗区,,230605,0459,230605000000,,,红岗,,,,,,,1265,2,100,1007,1265,2686,,,,
2687,6,124.805901,46.037936,大同区,,230606,0459,230606000000,,,大同,,,,,,,1265,2,100,1007,1265,2687,,,,
2688,6,125.261947,45.696985,肇州县,,230621,0459,230621000000,,,肇州,,,,,,,1265,2,100,1007,1265,2688,,,,
2689,6,125.071381,45.517047,肇源县,,230622,0459,230622000000,,,肇源,,,,,,,1265,2,100,1007,1265,2689,,,,
2690,6,124.857054,47.169697,林甸县,,230623,0459,230623000000,,,林甸,,,,,,,1265,2,100,1007,1265,2690,,,,
2691,6,124.435749,46.860663,杜尔伯特蒙古族自治县,,230624,0459,230624000000,,,,,,,,,,1265,2,100,1007,1265,2691,,,,
2692,6,125.144387,46.572896,大庆高新技术产业开发区,,230603,0459,230671000000,,,,,,,,,,1265,2,100,1007,1265,2692,,,,
2693,6,128.834094,47.725269,伊美区,,230700,0458,230717000000,,,伊美,,,,,,,1266,2,100,1007,1266,2693,,,,
2694,6,128.834094,47.725269,乌翠区,,230700,0458,230718000000,,,乌翠,,,,,,,1266,2,100,1007,1266,2694,,,,
2695,6,128.833672,47.85154,友好区,,230704,0458,230719000000,,,友好,,,,,,,1266,2,100,1007,1266,2695,,,,
2696,6,130.395159,48.88669,嘉荫县,,230722,0458,230722000000,,,嘉荫,,,,,,,1266,2,100,1007,1266,2696,,,,
2697,6,128.834094,47.725269,汤旺县,,230700,0458,230723000000,,,汤旺,,,,,,,1266,2,100,1007,1266,2697,,,,
2698,6,128.834094,47.725269,丰林县,,230700,0458,230724000000,,,丰林,,,,,,,1266,2,100,1007,1266,2698,,,,
2699,6,128.834094,47.725269,大箐山县,,230700,0458,230725000000,,,大箐山,,,,,,,1266,2,100,1007,1266,2699,,,,
2700,6,129.275847,47.135727,南岔县,,230703,0458,230726000000,,,南岔,,,,,,,1266,2,100,1007,1266,2700,,,,
2701,6,128.834094,47.725269,金林区,,230700,0458,230751000000,,,金林,,,,,,,1266,2,100,1007,1266,2701,,,,
2702,6,128.02555,46.984374,铁力市,,230781,0458,230781000000,,,铁力,,,,,,,1266,2,100,1007,1266,2702,,,,
2703,6,130.357435,46.805482,向阳区,,230803,0454,230803000000,,,向阳,,,,,,,1267,2,100,1007,1267,2703,,,,
2704,6,130.367133,46.81178,前进区,,230804,0454,230804000000,,,前进,,,,,,,1267,2,100,1007,1267,2704,,,,
2705,6,130.39571,46.82023,东风区,,230805,0454,230805000000,,,东风,,,,,,,1267,2,100,1007,1267,2705,,,,
2706,6,130.319378,46.807844,郊区,,230811,0454,230811000000,,,,,,,,,,1267,2,100,1007,1267,2706,,,,
2707,6,130.545956,46.237259,桦南县,,230822,0454,230822000000,,,桦南,,,,,,,1267,2,100,1007,1267,2707,,,,
2708,6,130.711304,47.020749,桦川县,,230826,0454,230826000000,,,桦川,,,,,,,1267,2,100,1007,1267,2708,,,,
2709,6,129.89761,46.728787,汤原县,,230828,0454,230828000000,,,汤原,,,,,,,1267,2,100,1007,1267,2709,,,,
2710,6,132.503409,47.640236,同江市,,230881,0454,230881000000,,,同江,,,,,,,1267,2,100,1007,1267,2710,,,,
2711,6,132.029761,47.247583,富锦市,,230882,0454,230882000000,,,富锦,,,,,,,1267,2,100,1007,1267,2711,,,,
2712,6,134.300163,48.362276,抚远市,,230883,0454,230883000000,,,抚远,,,,,,,1267,2,100,1007,1267,2712,,,,
2713,6,130.924715,45.813894,新兴区,,230902,0464,230902000000,,,新兴,,,,,,,1268,2,100,1007,1268,2713,,,,
2714,6,131.012491,45.763317,桃山区,,230903,0464,230903000000,,,桃山,,,,,,,1268,2,100,1007,1268,2714,,,,
2715,6,131.060115,45.782837,茄子河区,,230904,0464,230904000000,,,茄子河,,,,,,,1268,2,100,1007,1268,2715,,,,
2716,6,130.58485,45.753483,勃利县,,230921,0464,230921000000,,,勃利,,,,,,,1268,2,100,1007,1268,2716,,,,
2717,6,129.619573,44.579406,东安区,,231002,0453,231002000000,,,东安,,,,,,,1269,2,100,1007,1269,2717,,,,
2718,6,129.628525,44.59414,阳明区,,231003,0453,231003000000,,,阳明,,,,,,,1269,2,100,1007,1269,2718,,,,
2719,6,129.584618,44.594117,爱民区,,231004,0453,231004000000,,,爱民,,,,,,,1269,2,100,1007,1269,2719,,,,
2720,6,129.609069,44.575681,西安区,,231005,0453,231005000000,,,西安,,,,,,,1269,2,100,1007,1269,2720,,,,
2721,6,130.276616,45.275793,林口县,,231025,0453,231025000000,,,林口,,,,,,,1269,2,100,1007,1269,2721,,,,
2722,6,129.626091,44.549687,牡丹江经济技术开发区,,231000,0453,231071000000,,,,,,,,,,1269,2,100,1007,1269,2722,,,,
2723,6,131.144868,44.409978,绥芬河市,,231081,0453,231081000000,,,绥芬河,,,,,,,1269,2,100,1007,1269,2723,,,,
2724,6,129.373051,44.591924,海林市,,231083,0453,231083000000,,,海林,,,,,,,1269,2,100,1007,1269,2724,,,,
2725,6,129.475575,44.338485,宁安市,,231084,0453,231084000000,,,宁安,,,,,,,1269,2,100,1007,1269,2725,,,,
2726,6,130.517206,44.916719,穆棱市,,231085,0453,231085000000,,,穆棱,,,,,,,1269,2,100,1007,1269,2726,,,,
2727,6,131.11525,44.085054,东宁市,,231086,0453,231086000000,,,东宁,,,,,,,1269,2,100,1007,1269,2727,,,,
2728,6,127.493047,50.250407,爱辉区,,231102,0456,231102000000,,,爱辉,,,,,,,1270,2,100,1007,1270,2728,,,,
2729,6,128.471357,49.562033,逊克县,,231123,0456,231123000000,,,逊克,,,,,,,1270,2,100,1007,1270,2729,,,,
2730,6,127.328958,49.423381,孙吴县,,231124,0456,231124000000,,,孙吴,,,,,,,1270,2,100,1007,1270,2730,,,,
2731,6,126.484548,48.239195,北安市,,231181,0456,231181000000,,,北安,,,,,,,1270,2,100,1007,1270,2731,,,,
2732,6,126.198681,48.515136,五大连池市,,231182,0456,231182000000,,,五大连池,,,,,,,1270,2,100,1007,1270,2732,,,,
2733,6,125.213846,49.183637,嫩江市,,231121,0456,231183000000,,,嫩江,,,,,,,1270,2,100,1007,1270,2733,,,,
2734,6,126.979195,46.6354,北林区,,231202,0455,231202000000,,,北林,,,,,,,1271,2,100,1007,1271,2734,,,,
2735,6,126.479654,46.830628,望奎县,,231221,0455,231221000000,,,望奎,,,,,,,1271,2,100,1007,1271,2735,,,,
2736,6,126.281745,46.250477,兰西县,,231222,0455,231222000000,,,兰西,,,,,,,1271,2,100,1007,1271,2736,,,,
2737,6,126.107087,46.687513,青冈县,,231223,0455,231223000000,,,青冈,,,,,,,1271,2,100,1007,1271,2737,,,,
2738,6,127.501116,46.878023,庆安县,,231224,0455,231224000000,,,庆安,,,,,,,1271,2,100,1007,1271,2738,,,,
2739,6,125.899819,47.171404,明水县,,231225,0455,231225000000,,,明水,,,,,,,1271,2,100,1007,1271,2739,,,,
2740,6,127.107929,47.233567,绥棱县,,231226,0455,231226000000,,,绥棱,,,,,,,1271,2,100,1007,1271,2740,,,,
2741,6,125.345162,46.421466,安达市,,231281,0455,231281000000,,,安达,,,,,,,1271,2,100,1007,1271,2741,,,,
2742,6,125.955454,46.049248,肇东市,,231282,0455,231282000000,,,肇东,,,,,,,1271,2,100,1007,1271,2742,,,,
2743,6,126.966659,47.459717,海伦市,,231283,0455,231283000000,,,海伦,,,,,,,1271,2,100,1007,1271,2743,,,,
2744,6,122.531563,52.970759,漠河市,,232723,0457,232701000000,,,漠河,,,,,,,1272,2,100,1007,1272,2744,,,,
2745,6,126.658169,51.724126,呼玛县,,232721,0457,232721000000,,,呼玛,,,,,,,1272,2,100,1007,1272,2745,,,,
2746,6,124.702277,52.333049,塔河县,,232722,0457,232722000000,,,塔河,,,,,,,1272,2,100,1007,1272,2746,,,,
2747,6,124.132011,50.407058,加格达奇区,,232701,0457,232761000000,,,加格达奇,,,,,,,1272,2,100,1007,1272,2747,,,,
2748,6,124.079458,50.421951,松岭区,,232701,0457,232762000000,,,松岭,,,,,,,1272,2,100,1007,1272,2748,,,,
2749,6,124.703358,52.333797,新林区,,232700,0457,232763000000,,,新林,,,,,,,1272,2,100,1007,1272,2749,,,,
2750,6,124.119377,50.419935,呼中区,,232701,0457,232764000000,,,呼中,,,,,,,1272,2,100,1007,1272,2750,,,,
2751,6,121.464703,31.231791,黄浦区,,310101,021,310101000000,,,黄浦,,,,,,,1273,2,100,1008,1273,2751,,,,
2752,6,121.433251,31.201068,徐汇区,,310104,021,310104000000,,,徐汇,,,,,,,1273,2,100,1008,1273,2752,,,,
2753,6,121.419987,31.222218,长宁区,,310105,021,310105000000,,,长宁,,,,,,,1273,2,100,1008,1273,2753,,,,
2754,6,121.454816,31.249003,静安区,,310106,021,310106000000,,,静安,,,,,,,1273,2,100,1008,1273,2754,,,,
2755,6,121.390903,31.251667,普陀区,,310107,021,310107000000,,,普陀,,,,,,,1273,2,100,1008,1273,2755,,,,
2756,6,121.500717,31.266619,虹口区,,310109,021,310109000000,,,虹口,,,,,,,1273,2,100,1008,1273,2756,,,,
2757,6,121.521735,31.261623,杨浦区,,310110,021,310110000000,,,杨浦,,,,,,,1273,2,100,1008,1273,2757,,,,
2758,6,121.377078,31.114717,闵行区,,310112,021,310112000000,,,闵行,,,,,,,1273,2,100,1008,1273,2758,,,,
2759,6,121.485128,31.40738,宝山区,,310113,021,310113000000,,,宝山,,,,,,,1273,2,100,1008,1273,2759,,,,
2760,6,121.260855,31.377564,嘉定区,,310114,021,310114000000,,,嘉定,,,,,,,1273,2,100,1008,1273,2760,,,,
2761,6,121.540096,31.223662,浦东新区,,310115,021,310115000000,,,浦东新,,,,,,,1273,2,100,1008,1273,2761,,,,
2762,6,121.337438,30.744164,金山区,,310116,021,310116000000,,,金山,,,,,,,1273,2,100,1008,1273,2762,,,,
2763,6,121.22333,31.034362,松江区,,310117,021,310117000000,,,松江,,,,,,,1273,2,100,1008,1273,2763,,,,
2764,6,121.11958,31.152574,青浦区,,310118,021,310118000000,,,青浦,,,,,,,1273,2,100,1008,1273,2764,,,,
2765,6,121.469547,30.919911,奉贤区,,310120,021,310120000000,,,奉贤,,,,,,,1273,2,100,1008,1273,2765,,,,
2766,6,121.392732,31.625328,崇明区,,310151,021,310151000000,,,崇明,,,,,,,1273,2,100,1008,1273,2766,,,,
2767,6,118.79268,32.050762,玄武区,,320102,025,320102000000,,,玄武,,,,,,,1274,2,100,1009,1274,2767,,,,
2768,6,118.789559,32.041201,秦淮区,,320104,025,320104000000,,,秦淮,,,,,,,1274,2,100,1009,1274,2768,,,,
2769,6,118.726482,32.005583,建邺区,,320105,025,320105000000,,,建邺,,,,,,,1274,2,100,1009,1274,2769,,,,
2770,6,118.764571,32.068382,鼓楼区,,320106,025,320106000000,,,鼓楼,,,,,,,1274,2,100,1009,1274,2770,,,,
2771,6,118.622866,32.061299,浦口区,,320111,025,320111000000,,,浦口,,,,,,,1274,2,100,1009,1274,2771,,,,
2772,6,118.904218,32.098455,栖霞区,,320113,025,320113000000,,,栖霞,,,,,,,1274,2,100,1009,1274,2772,,,,
2773,6,118.77387,31.993384,雨花台区,,320114,025,320114000000,,,雨花台,,,,,,,1274,2,100,1009,1274,2773,,,,
2774,6,118.834598,31.95583,江宁区,,320115,025,320115000000,,,江宁,,,,,,,1274,2,100,1009,1274,2774,,,,
2775,6,118.816241,32.324402,六合区,,320116,025,320116000000,,,六合,,,,,,,1274,2,100,1009,1274,2775,,,,
2776,6,119.022966,31.653013,溧水区,,320117,025,320117000000,,,溧水,,,,,,,1274,2,100,1009,1274,2776,,,,
2777,6,118.887126,31.330671,高淳区,,320118,025,320118000000,,,高淳,,,,,,,1274,2,100,1009,1274,2777,,,,
2778,6,120.353173,31.59151,锡山区,,320205,0510,320205000000,,,锡山,,,,,,,1275,2,100,1009,1275,2778,,,,
2779,6,120.293892,31.682915,惠山区,,320206,0510,320206000000,,,惠山,,,,,,,1275,2,100,1009,1275,2779,,,,
2780,6,120.26718,31.472432,滨湖区,,320211,0510,320211000000,,,滨湖,,,,,,,1275,2,100,1009,1275,2780,,,,
2781,6,120.291995,31.577625,梁溪区,,320213,0510,320213000000,,,梁溪,,,,,,,1275,2,100,1009,1275,2781,,,,
2782,6,120.348103,31.552763,新吴区,,320214,0510,320214000000,,,新吴,,,,,,,1275,2,100,1009,1275,2782,,,,
2783,6,120.280323,31.922618,江阴市,,320281,0510,320281000000,,,江阴,,,,,,,1275,2,100,1009,1275,2783,,,,
2784,6,119.818479,31.342721,宜兴市,,320282,0510,320282000000,,,宜兴,,,,,,,1275,2,100,1009,1275,2784,,,,
2785,6,117.179816,34.289723,鼓楼区,,320302,0516,320302000000,,,鼓楼,,,,,,,1276,2,100,1009,1276,2785,,,,
2786,6,117.245841,34.254461,云龙区,,320303,0516,320303000000,,,云龙,,,,,,,1276,2,100,1009,1276,2786,,,,
2787,6,117.460771,34.436609,贾汪区,,320305,0516,320305000000,,,贾汪,,,,,,,1276,2,100,1009,1276,2787,,,,
2788,6,117.188048,34.245503,泉山区,,320311,0516,320311000000,,,泉山,,,,,,,1276,2,100,1009,1276,2788,,,,
2789,6,117.163629,34.181923,铜山区,,320312,0516,320312000000,,,铜山,,,,,,,1276,2,100,1009,1276,2789,,,,
2790,6,116.590172,34.695101,丰县,,320321,0516,320321000000,,,,,,,,,,1276,2,100,1009,1276,2790,,,,
2791,6,116.932124,34.722791,沛县,,320322,0516,320322000000,,,,,,,,,,1276,2,100,1009,1276,2791,,,,
2792,6,117.936098,33.914124,睢宁县,,320324,0516,320324000000,,,睢宁,,,,,,,1276,2,100,1009,1276,2792,,,,
2793,6,117.240241,34.289855,徐州经济技术开发区,,320302,0516,320371000000,,,,,,,,,,1276,2,100,1009,1276,2793,,,,
2794,6,118.348863,34.370659,新沂市,,320381,0516,320381000000,,,新沂,,,,,,,1276,2,100,1009,1276,2794,,,,
2795,6,118.006831,34.340093,邳州市,,320382,0516,320382000000,,,邳州,,,,,,,1276,2,100,1009,1276,2795,,,,
2796,6,119.970241,31.781652,天宁区,,320402,0519,320402000000,,,天宁,,,,,,,1277,2,100,1009,1277,2796,,,,
2797,6,119.897427,31.804342,钟楼区,,320404,0519,320404000000,,,钟楼,,,,,,,1277,2,100,1009,1277,2797,,,,
2798,6,119.967434,31.83269,新北区,,320411,0519,320411000000,,,新北,,,,,,,1277,2,100,1009,1277,2798,,,,
2799,6,119.937754,31.703288,武进区,,320412,0519,320412000000,,,武进,,,,,,,1277,2,100,1009,1277,2799,,,,
2800,6,119.592991,31.725391,金坛区,,320413,0519,320413000000,,,金坛,,,,,,,1277,2,100,1009,1277,2800,,,,
2801,6,119.479006,31.418845,溧阳市,,320481,0519,320481000000,,,溧阳,,,,,,,1277,2,100,1009,1277,2801,,,,
2802,6,120.56263,31.297014,虎丘区,,320505,0512,320505000000,,,虎丘,,,,,,,1278,2,100,1009,1278,2802,,,,
2803,6,120.627711,31.266391,吴中区,,320506,0512,320506000000,,,吴中,,,,,,,1278,2,100,1009,1278,2803,,,,
2804,6,120.638451,31.371212,相城区,,320507,0512,320507000000,,,相城,,,,,,,1278,2,100,1009,1278,2804,,,,
2805,6,120.613118,31.338558,姑苏区,,320508,0512,320508000000,,,姑苏,,,,,,,1278,2,100,1009,1278,2805,,,,
2806,6,120.640961,31.140897,吴江区,,320509,0512,320509000000,,,吴江,,,,,,,1278,2,100,1009,1278,2806,,,,
2807,6,120.802814,31.353255,苏州工业园区,,320506,0512,320571000000,,,苏州工业园,,,,,,,1278,2,100,1009,1278,2807,,,,
2808,6,120.748085,31.656312,常熟市,,320581,0512,320581000000,,,常熟,,,,,,,1278,2,100,1009,1278,2808,,,,
2809,6,120.474484,31.901773,张家港市,,320582,0512,320582000000,,,张家港,,,,,,,1278,2,100,1009,1278,2809,,,,
2810,6,120.97641,31.387623,昆山市,,320583,0512,320583000000,,,昆山,,,,,,,1278,2,100,1009,1278,2810,,,,
2811,6,121.125933,31.459518,太仓市,,320585,0512,320585000000,,,太仓,,,,,,,1278,2,100,1009,1278,2811,,,,
2812,6,120.853176,32.012015,崇川区,,320602,0513,320602000000,,,崇川,,,,,,,1279,2,100,1009,1279,2812,,,,
2813,6,120.814187,32.034517,港闸区,,320611,0513,320611000000,,,港闸,,,,,,,1279,2,100,1009,1279,2813,,,,
2814,6,121.070415,32.06599,通州区,,320612,0513,320612000000,,,通州,,,,,,,1279,2,100,1009,1279,2814,,,,
2815,6,121.180608,32.333732,如东县,,320623,0513,320623000000,,,如东,,,,,,,1279,2,100,1009,1279,2815,,,,
2816,6,120.924752,31.925323,南通经济技术开发区,,320602,0513,320671000000,,,,,,,,,,1279,2,100,1009,1279,2816,,,,
2817,6,121.65313,31.810086,启东市,,320681,0513,320681000000,,,启东,,,,,,,1279,2,100,1009,1279,2817,,,,
2818,6,120.570667,32.372775,如皋市,,320682,0513,320682000000,,,如皋,,,,,,,1279,2,100,1009,1279,2818,,,,
2819,6,121.177055,31.873055,海门市,,320684,0513,320684000000,,,海门,,,,,,,1279,2,100,1009,1279,2819,,,,
2820,6,120.462723,32.535478,海安市,,320621,0513,320685000000,,,海安,,,,,,,1279,2,100,1009,1279,2820,,,,
2821,6,119.333132,34.761031,连云区,,320703,0518,320703000000,,,连云,,,,,,,1280,2,100,1009,1280,2821,,,,
2822,6,119.188129,34.607744,海州区,,320706,0518,320706000000,,,海州,,,,,,,1280,2,100,1009,1280,2822,,,,
2823,6,119.16768,34.842072,赣榆区,,320707,0518,320707000000,,,赣榆,,,,,,,1280,2,100,1009,1280,2823,,,,
2824,6,118.747375,34.543411,东海县,,320722,0518,320722000000,,,东海,,,,,,,1280,2,100,1009,1280,2824,,,,
2825,6,119.233898,34.285625,灌云县,,320723,0518,320723000000,,,灌云,,,,,,,1280,2,100,1009,1280,2825,,,,
2826,6,119.310113,34.088376,灌南县,,320724,0518,320724000000,,,灌南,,,,,,,1280,2,100,1009,1280,2826,,,,
2827,6,119.341347,34.697476,连云港经济技术开发区,,320703,0518,320771000000,,,,,,,,,,1280,2,100,1009,1280,2827,,,,
2828,6,118.698127,34.508462,连云港高新技术产业开发区,,320722,0518,320772000000,,,,,,,,,,1280,2,100,1009,1280,2828,,,,
2829,6,119.135519,33.504203,淮安区,,320803,0517,320803000000,,,淮安,,,,,,,1281,2,100,1009,1281,2829,,,,
2830,6,119.029199,33.633226,淮阴区,,320804,0517,320804000000,,,淮阴,,,,,,,1281,2,100,1009,1281,2830,,,,
2831,6,119.009828,33.611748,清江浦区,,320800,0517,320812000000,,,清江浦,,,,,,,1281,2,100,1009,1281,2831,,,,
2832,6,118.867984,33.295994,洪泽区,,320813,0517,320813000000,,,洪泽,,,,,,,1281,2,100,1009,1281,2832,,,,
2833,6,119.254904,33.782342,涟水县,,320826,0517,320826000000,,,涟水,,,,,,,1281,2,100,1009,1281,2833,,,,
2834,6,118.539182,33.013896,盱眙县,,320830,0517,320830000000,,,盱眙,,,,,,,1281,2,100,1009,1281,2834,,,,
2835,6,119.015166,33.027157,金湖县,,320831,0517,320831000000,,,金湖,,,,,,,1281,2,100,1009,1281,2835,,,,
2836,6,119.182039,33.654512,淮安经济技术开发区,,320803,0517,320871000000,,,,,,,,,,1281,2,100,1009,1281,2836,,,,
2837,6,120.192513,33.392011,亭湖区,,320902,0515,320902000000,,,亭湖,,,,,,,1282,2,100,1009,1282,2837,,,,
2838,6,120.148927,33.339521,盐都区,,320903,0515,320903000000,,,盐都,,,,,,,1282,2,100,1009,1282,2838,,,,
2839,6,120.496279,33.201971,大丰区,,320904,0515,320904000000,,,大丰,,,,,,,1282,2,100,1009,1282,2839,,,,
2840,6,119.573205,34.200929,响水县,,320921,0515,320921000000,,,响水,,,,,,,1282,2,100,1009,1282,2840,,,,
2841,6,119.81575,33.991741,滨海县,,320922,0515,320922000000,,,滨海,,,,,,,1282,2,100,1009,1282,2841,,,,
2842,6,119.797414,33.760753,阜宁县,,320923,0515,320923000000,,,阜宁,,,,,,,1282,2,100,1009,1282,2842,,,,
2843,6,120.253275,33.776173,射阳县,,320924,0515,320924000000,,,射阳,,,,,,,1282,2,100,1009,1282,2843,,,,
2844,6,119.793486,33.465736,建湖县,,320925,0515,320925000000,,,建湖,,,,,,,1282,2,100,1009,1282,2844,,,,
2845,6,120.245103,33.355844,盐城经济技术开发区,,320902,0515,320971000000,,,,,,,,,,1282,2,100,1009,1282,2845,,,,
2846,6,120.315588,32.870231,东台市,,320981,0515,320981000000,,,东台,,,,,,,1282,2,100,1009,1282,2846,,,,
2847,6,119.426395,32.396617,广陵区,,321002,0514,321002000000,,,广陵,,,,,,,1283,2,100,1009,1283,2847,,,,
2848,6,119.392529,32.379407,邗江区,,321003,0514,321003000000,,,邗江,,,,,,,1283,2,100,1009,1283,2848,,,,
2849,6,119.564983,32.436895,江都区,,321012,0514,321012000000,,,江都,,,,,,,1283,2,100,1009,1283,2849,,,,
2850,6,119.355189,33.24187,宝应县,,321023,0514,321023000000,,,宝应,,,,,,,1283,2,100,1009,1283,2850,,,,
2851,6,119.407469,32.369787,扬州经济技术开发区,,321003,0514,321071000000,,,,,,,,,,1283,2,100,1009,1283,2851,,,,
2852,6,119.179399,32.274253,仪征市,,321081,0514,321081000000,,,仪征,,,,,,,1283,2,100,1009,1283,2852,,,,
2853,6,119.453739,32.783481,高邮市,,321084,0514,321084000000,,,高邮,,,,,,,1283,2,100,1009,1283,2853,,,,
2854,6,119.464831,32.200246,京口区,,321102,0511,321102000000,,,京口,,,,,,,1284,2,100,1009,1284,2854,,,,
2855,6,119.406483,32.197203,润州区,,321111,0511,321111000000,,,润州,,,,,,,1284,2,100,1009,1284,2855,,,,
2856,6,119.428429,32.133841,丹徒区,,321112,0511,321112000000,,,丹徒,,,,,,,1284,2,100,1009,1284,2856,,,,
2857,6,119.663141,32.18958,镇江新区,,321102,0511,321171000000,,,镇江新,,,,,,,1284,2,100,1009,1284,2857,,,,
2858,6,119.601608,32.012313,丹阳市,,321181,0511,321181000000,,,丹阳,,,,,,,1284,2,100,1009,1284,2858,,,,
2859,6,119.792652,32.236923,扬中市,,321182,0511,321182000000,,,扬中,,,,,,,1284,2,100,1009,1284,2859,,,,
2860,6,119.163323,31.946903,句容市,,321183,0511,321183000000,,,句容,,,,,,,1284,2,100,1009,1284,2860,,,,
2861,6,119.914686,32.493236,海陵区,,321202,0523,321202000000,,,海陵,,,,,,,1285,2,100,1009,1285,2861,,,,
2862,6,119.876958,32.321055,高港区,,321203,0523,321203000000,,,高港,,,,,,,1285,2,100,1009,1285,2862,,,,
2863,6,120.122972,32.511023,姜堰区,,321204,0523,321204000000,,,姜堰,,,,,,,1285,2,100,1009,1285,2863,,,,
2864,6,119.91838,32.458001,泰州医药高新技术产业开发区,,321200,0523,321271000000,,,,,,,,,,1285,2,100,1009,1285,2864,,,,
2865,6,119.847659,32.912448,兴化市,,321281,0523,321281000000,,,兴化,,,,,,,1285,2,100,1009,1285,2865,,,,
2866,6,120.272522,31.984734,靖江市,,321282,0523,321282000000,,,靖江,,,,,,,1285,2,100,1009,1285,2866,,,,
2867,6,120.04678,32.173755,泰兴市,,321283,0523,321283000000,,,泰兴,,,,,,,1285,2,100,1009,1285,2867,,,,
2868,6,118.237027,33.964388,宿城区,,321302,0527,321302000000,,,宿城,,,,,,,1286,2,100,1009,1286,2868,,,,
2869,6,118.325194,33.948085,宿豫区,,321311,0527,321311000000,,,宿豫,,,,,,,1286,2,100,1009,1286,2869,,,,
2870,6,118.799418,34.112388,沭阳县,,321322,0527,321322000000,,,沭阳,,,,,,,1286,2,100,1009,1286,2870,,,,
2871,6,118.697701,33.724588,泗阳县,,321323,0527,321323000000,,,泗阳,,,,,,,1286,2,100,1009,1286,2871,,,,
2872,6,118.21811,33.47755,泗洪县,,321324,0527,321324000000,,,泗洪,,,,,,,1286,2,100,1009,1286,2872,,,,
2873,6,118.261883,33.893504,宿迁经济技术开发区,,321302,0527,321371000000,,,,,,,,,,1286,2,100,1009,1286,2873,,,,
2874,6,120.179743,30.256845,上城区,,330102,0571,330102000000,,,上城,,,,,,,1287,2,100,1010,1287,2874,,,,
2875,6,120.176276,30.28409,下城区,,330103,0571,330103000000,,,下城,,,,,,,1287,2,100,1010,1287,2875,,,,
2876,6,120.209314,30.265092,江干区,,330104,0571,330104000000,,,江干,,,,,,,1287,2,100,1010,1287,2876,,,,
2877,6,120.13667,30.321338,拱墅区,,330105,0571,330105000000,,,拱墅,,,,,,,1287,2,100,1010,1287,2877,,,,
2878,6,120.125445,30.261616,西湖区,,330106,0571,330106000000,,,西湖,,,,,,,1287,2,100,1010,1287,2878,,,,
2879,6,120.141796,30.164771,滨江区,,330108,0571,330108000000,,,滨江,,,,,,,1287,2,100,1010,1287,2879,,,,
2880,6,120.488927,30.285758,萧山区,,330109,0571,330109000000,,,萧山,,,,,,,1287,2,100,1010,1287,2880,,,,
2881,6,120.240942,30.412406,余杭区,,330110,0571,330110000000,,,余杭,,,,,,,1287,2,100,1010,1287,2881,,,,
2882,6,119.955505,30.05127,富阳区,,330111,0571,330111000000,,,富阳,,,,,,,1287,2,100,1010,1287,2882,,,,
2883,6,119.719839,30.236349,临安区,,330185,0571,330112000000,,,临安,,,,,,,1287,2,100,1010,1287,2883,,,,
2884,6,119.686607,29.796074,桐庐县,,330122,0571,330122000000,,,桐庐,,,,,,,1287,2,100,1010,1287,2884,,,,
2885,6,119.036692,29.611182,淳安县,,330127,0571,330127000000,,,淳安,,,,,,,1287,2,100,1010,1287,2885,,,,
2886,6,119.276163,29.477442,建德市,,330182,0571,330182000000,,,建德,,,,,,,1287,2,100,1010,1287,2886,,,,
2887,6,121.546911,29.862358,海曙区,,330203,0574,330203000000,,,海曙,,,,,,,1288,2,100,1010,1288,2887,,,,
2888,6,121.55108,29.889349,江北区,,330205,0574,330205000000,,,江北,,,,,,,1288,2,100,1010,1288,2888,,,,
2889,6,121.840527,29.901612,北仑区,,330206,0574,330206000000,,,北仑,,,,,,,1288,2,100,1010,1288,2889,,,,
2890,6,121.712283,29.951461,镇海区,,330211,0574,330211000000,,,镇海,,,,,,,1288,2,100,1010,1288,2890,,,,
2891,6,121.542441,29.819091,鄞州区,,330212,0574,330212000000,,,鄞州,,,,,,,1288,2,100,1010,1288,2891,,,,
2892,6,121.513341,29.572137,奉化区,,330213,0574,330213000000,,,奉化,,,,,,,1288,2,100,1010,1288,2892,,,,
2893,6,121.865334,29.479409,象山县,,330225,0574,330225000000,,,象山,,,,,,,1288,2,100,1010,1288,2893,,,,
2894,6,121.425009,29.290427,宁海县,,330226,0574,330226000000,,,宁海,,,,,,,1288,2,100,1010,1288,2894,,,,
2895,6,121.150136,30.040181,余姚市,,330281,0574,330281000000,,,余姚,,,,,,,1288,2,100,1010,1288,2895,,,,
2896,6,121.262233,30.172105,慈溪市,,330282,0574,330282000000,,,慈溪,,,,,,,1288,2,100,1010,1288,2896,,,,
2897,6,120.651161,28.018822,鹿城区,,330302,0577,330302000000,,,鹿城,,,,,,,1289,2,100,1010,1289,2897,,,,
2898,6,120.807182,27.936036,龙湾区,,330303,0577,330303000000,,,龙湾,,,,,,,1289,2,100,1010,1289,2898,,,,
2899,6,120.704759,27.917496,瓯海区,,330304,0577,330304000000,,,瓯海,,,,,,,1289,2,100,1010,1289,2899,,,,
2900,6,121.15297,27.839239,洞头区,,330305,0577,330305000000,,,洞头,,,,,,,1289,2,100,1010,1289,2900,,,,
2901,6,120.678106,28.153922,永嘉县,,330324,0577,330324000000,,,永嘉,,,,,,,1289,2,100,1010,1289,2901,,,,
2902,6,120.561866,27.665273,平阳县,,330326,0577,330326000000,,,平阳,,,,,,,1289,2,100,1010,1289,2902,,,,
2903,6,120.421419,27.5213,苍南县,,330327,0577,330327000000,,,苍南,,,,,,,1289,2,100,1010,1289,2903,,,,
2904,6,120.086885,27.790024,文成县,,330328,0577,330328000000,,,文成,,,,,,,1289,2,100,1010,1289,2904,,,,
2905,6,119.712976,27.560103,泰顺县,,330329,0577,330329000000,,,泰顺,,,,,,,1289,2,100,1010,1289,2905,,,,
2906,6,120.814221,27.87737,温州经济技术开发区,,330303,0577,330371000000,,,,,,,,,,1289,2,100,1010,1289,2906,,,,
2907,6,120.651191,27.781987,瑞安市,,330381,0577,330381000000,,,瑞安,,,,,,,1289,2,100,1010,1289,2907,,,,
2908,6,120.963122,28.119427,乐清市,,330382,0577,330382000000,,,乐清,,,,,,,1289,2,100,1010,1289,2908,,,,
2909,6,120.533842,27.564838,龙港市,,330327,0577,330383000000,,,龙港,,,,,,,1289,2,100,1010,1289,2909,,,,
2910,6,120.778728,30.75016,南湖区,,330402,0573,330402000000,,,南湖,,,,,,,1290,2,100,1010,1290,2910,,,,
2911,6,120.704729,30.767488,秀洲区,,330411,0573,330411000000,,,秀洲,,,,,,,1290,2,100,1010,1290,2911,,,,
2912,6,120.921711,30.833321,嘉善县,,330421,0573,330421000000,,,嘉善,,,,,,,1290,2,100,1010,1290,2912,,,,
2913,6,120.94211,30.528969,海盐县,,330424,0573,330424000000,,,海盐,,,,,,,1290,2,100,1010,1290,2913,,,,
2914,6,120.676541,30.513136,海宁市,,330481,0573,330481000000,,,海宁,,,,,,,1290,2,100,1010,1290,2914,,,,
2915,6,121.010749,30.679517,平湖市,,330482,0573,330482000000,,,平湖,,,,,,,1290,2,100,1010,1290,2915,,,,
2916,6,120.560946,30.632691,桐乡市,,330483,0573,330483000000,,,桐乡,,,,,,,1290,2,100,1010,1290,2916,,,,
2917,6,120.181186,30.85933,吴兴区,,330502,0572,330502000000,,,吴兴,,,,,,,1291,2,100,1010,1291,2917,,,,
2918,6,120.413888,30.851758,南浔区,,330503,0572,330503000000,,,南浔,,,,,,,1291,2,100,1010,1291,2918,,,,
2919,6,119.972752,30.544976,德清县,,330521,0572,330521000000,,,德清,,,,,,,1291,2,100,1010,1291,2919,,,,
2920,6,119.906339,31.029,长兴县,,330522,0572,330522000000,,,长兴,,,,,,,1291,2,100,1010,1291,2920,,,,
2921,6,119.675469,30.64112,安吉县,,330523,0572,330523000000,,,安吉,,,,,,,1291,2,100,1010,1291,2921,,,,
2922,6,120.578557,29.990883,越城区,,330602,0575,330602000000,,,越城,,,,,,,1292,2,100,1010,1292,2922,,,,
2923,6,120.490729,30.084385,柯桥区,,330603,0575,330603000000,,,柯桥,,,,,,,1292,2,100,1010,1292,2923,,,,
2924,6,120.864041,30.035736,上虞区,,330604,0575,330604000000,,,上虞,,,,,,,1292,2,100,1010,1292,2924,,,,
2925,6,120.899849,29.50256,新昌县,,330624,0575,330624000000,,,新昌,,,,,,,1292,2,100,1010,1292,2925,,,,
2926,6,120.242431,29.711178,诸暨市,,330681,0575,330681000000,,,诸暨,,,,,,,1292,2,100,1010,1292,2926,,,,
2927,6,120.826912,29.564029,嵊州市,,330683,0575,330683000000,,,嵊州,,,,,,,1292,2,100,1010,1292,2927,,,,
2928,6,119.566919,29.089223,婺城区,,330702,0579,330702000000,,,婺城,,,,,,,1293,2,100,1010,1293,2928,,,,
2929,6,119.68809,29.101998,金东区,,330703,0579,330703000000,,,金东,,,,,,,1293,2,100,1010,1293,2929,,,,
2930,6,119.811674,28.895778,武义县,,330723,0579,330723000000,,,武义,,,,,,,1293,2,100,1010,1293,2930,,,,
2931,6,119.887722,29.455239,浦江县,,330726,0579,330726000000,,,浦江,,,,,,,1293,2,100,1010,1293,2931,,,,
2932,6,120.445768,29.056761,磐安县,,330727,0579,330727000000,,,磐安,,,,,,,1293,2,100,1010,1293,2932,,,,
2933,6,119.455433,29.211546,兰溪市,,330781,0579,330781000000,,,兰溪,,,,,,,1293,2,100,1010,1293,2933,,,,
2934,6,120.070322,29.309329,义乌市,,330782,0579,330782000000,,,义乌,,,,,,,1293,2,100,1010,1293,2934,,,,
2935,6,120.237162,29.292317,东阳市,,330783,0579,330783000000,,,东阳,,,,,,,1293,2,100,1010,1293,2935,,,,
2936,6,119.642739,29.082035,永康市,,330700,0579,330784000000,,,永康,,,,,,,1293,2,100,1010,1293,2936,,,,
2937,6,118.866556,28.971607,柯城区,,330802,0570,330802000000,,,柯城,,,,,,,1294,2,100,1010,1294,2937,,,,
2938,6,118.954612,28.98282,衢江区,,330803,0570,330803000000,,,衢江,,,,,,,1294,2,100,1010,1294,2938,,,,
2939,6,118.506324,28.904492,常山县,,330822,0570,330822000000,,,常山,,,,,,,1294,2,100,1010,1294,2939,,,,
2940,6,118.410285,29.139963,开化县,,330824,0570,330824000000,,,开化,,,,,,,1294,2,100,1010,1294,2940,,,,
2941,6,119.1672,29.03111,龙游县,,330825,0570,330825000000,,,龙游,,,,,,,1294,2,100,1010,1294,2941,,,,
2942,6,118.62218,28.740526,江山市,,330881,0570,330881000000,,,江山,,,,,,,1294,2,100,1010,1294,2942,,,,
2943,6,122.102412,30.022111,定海区,,330902,0580,330902000000,,,定海,,,,,,,1295,2,100,1010,1295,2943,,,,
2944,6,122.319665,29.974108,普陀区,,330903,0580,330903000000,,,普陀,,,,,,,1295,2,100,1010,1295,2944,,,,
2945,6,122.222086,30.266555,岱山县,,330921,0580,330921000000,,,岱山,,,,,,,1295,2,100,1010,1295,2945,,,,
2946,6,122.447063,30.72784,嵊泗县,,330922,0580,330922000000,,,嵊泗,,,,,,,1295,2,100,1010,1295,2946,,,,
2947,6,121.43828,28.676695,椒江区,,331002,0576,331002000000,,,椒江,,,,,,,1296,2,100,1010,1296,2947,,,,
2948,6,121.257671,28.653248,黄岩区,,331003,0576,331003000000,,,黄岩,,,,,,,1296,2,100,1010,1296,2948,,,,
2949,6,121.360723,28.585664,路桥区,,331004,0576,331004000000,,,路桥,,,,,,,1296,2,100,1010,1296,2949,,,,
2950,6,121.391305,29.107483,三门县,,331022,0576,331022000000,,,三门,,,,,,,1296,2,100,1010,1296,2950,,,,
2951,6,121.002486,29.146827,天台县,,331023,0576,331023000000,,,天台,,,,,,,1296,2,100,1010,1296,2951,,,,
2952,6,120.730915,28.852224,仙居县,,331024,0576,331024000000,,,仙居,,,,,,,1296,2,100,1010,1296,2952,,,,
2953,6,121.381196,28.375562,温岭市,,331081,0576,331081000000,,,温岭,,,,,,,1296,2,100,1010,1296,2953,,,,
2954,6,121.140667,28.861309,临海市,,331082,0576,331082000000,,,临海,,,,,,,1296,2,100,1010,1296,2954,,,,
2955,6,121.227622,28.139172,玉环市,,331083,0576,331083000000,,,玉环,,,,,,,1296,2,100,1010,1296,2955,,,,
2956,6,119.908208,28.449256,莲都区,,331102,0578,331102000000,,,莲都,,,,,,,1297,2,100,1010,1297,2956,,,,
2957,6,120.285287,28.142291,青田县,,331121,0578,331121000000,,,青田,,,,,,,1297,2,100,1010,1297,2957,,,,
2958,6,120.086891,28.662237,缙云县,,331122,0578,331122000000,,,缙云,,,,,,,1297,2,100,1010,1297,2958,,,,
2959,6,119.271133,28.595295,遂昌县,,331123,0578,331123000000,,,遂昌,,,,,,,1297,2,100,1010,1297,2959,,,,
2960,6,119.477059,28.452359,松阳县,,331124,0578,331124000000,,,松阳,,,,,,,1297,2,100,1010,1297,2960,,,,
2961,6,119.568764,28.119228,云和县,,331125,0578,331125000000,,,云和,,,,,,,1297,2,100,1010,1297,2961,,,,
2962,6,119.057536,27.622271,庆元县,,331126,0578,331126000000,,,庆元,,,,,,,1297,2,100,1010,1297,2962,,,,
2963,6,119.631093,27.976716,景宁畲族自治县,,331127,0578,331127000000,,,,,,,,,,1297,2,100,1010,1297,2963,,,,
2964,6,119.136375,28.077742,龙泉市,,331181,0578,331181000000,,,龙泉,,,,,,,1297,2,100,1010,1297,2964,,,,
2965,6,117.303653,31.860003,瑶海区,,340102,0551,340102000000,,,瑶海,,,,,,,1298,2,100,1011,1298,2965,,,,
2966,6,117.259098,31.880657,庐阳区,,340103,0551,340103000000,,,庐阳,,,,,,,1298,2,100,1011,1298,2966,,,,
2967,6,117.255046,31.85317,蜀山区,,340104,0551,340104000000,,,蜀山,,,,,,,1298,2,100,1011,1298,2967,,,,
2968,6,117.304087,31.795036,包河区,,340111,0551,340111000000,,,包河,,,,,,,1298,2,100,1011,1298,2968,,,,
2969,6,117.161939,32.480003,长丰县,,340121,0551,340121000000,,,长丰,,,,,,,1298,2,100,1011,1298,2969,,,,
2970,6,117.463731,31.88987,肥东县,,340122,0551,340122000000,,,肥东,,,,,,,1298,2,100,1011,1298,2970,,,,
2971,6,117.152413,31.708684,肥西县,,340123,0551,340123000000,,,肥西,,,,,,,1298,2,100,1011,1298,2971,,,,
2972,6,117.282326,31.257594,庐江县,,340124,0551,340124000000,,,庐江,,,,,,,1298,2,100,1011,1298,2972,,,,
2973,6,117.130557,31.835187,合肥高新技术产业开发区,,340104,0551,340171000000,,,,,,,,,,1298,2,100,1011,1298,2973,,,,
2974,6,117.191972,31.787142,合肥经济技术开发区,,340123,0551,340172000000,,,,,,,,,,1298,2,100,1011,1298,2974,,,,
2975,6,117.371713,31.941957,合肥新站高新技术产业开发区,,340102,0551,340173000000,,,,,,,,,,1298,2,100,1011,1298,2975,,,,
2976,6,117.856523,31.600761,巢湖市,,340181,0551,340181000000,,,巢湖,,,,,,,1298,2,100,1011,1298,2976,,,,
2977,6,118.379735,31.342246,镜湖区,,340202,0553,340202000000,,,镜湖,,,,,,,1299,2,100,1011,1299,2977,,,,
2978,6,118.367256,31.313621,弋江区,,340203,0553,340203000000,,,弋江,,,,,,,1299,2,100,1011,1299,2978,,,,
2979,6,118.386317,31.371201,鸠江区,,340207,0553,340207000000,,,鸠江,,,,,,,1299,2,100,1011,1299,2979,,,,
2980,6,118.26286,31.221634,三山区,,340208,0553,340208000000,,,三山,,,,,,,1299,2,100,1011,1299,2980,,,,
2981,6,118.571182,31.137094,芜湖县,,340221,0553,340221000000,,,芜湖,,,,,,,1299,2,100,1011,1299,2981,,,,
2982,6,118.196051,31.083,繁昌县,,340222,0553,340222000000,,,繁昌,,,,,,,1299,2,100,1011,1299,2982,,,,
2983,6,118.329055,30.917057,南陵县,,340223,0553,340223000000,,,南陵,,,,,,,1299,2,100,1011,1299,2983,,,,
2984,6,117.89717,31.305395,无为县,,340225,0553,340225000000,,,无为,,,,,,,1299,2,100,1011,1299,2984,,,,
2985,6,118.571182,31.137094,芜湖经济技术开发区,,340221,0553,340271000000,,,,,,,,,,1299,2,100,1011,1299,2985,,,,
2986,6,118.335714,31.387625,安徽芜湖长江大桥经济开发区,,340202,0553,340272000000,,,,,,,,,,1299,2,100,1011,1299,2986,,,,
2987,6,117.387936,32.9447,龙子湖区,,340302,0552,340302000000,,,龙子湖,,,,,,,1300,2,100,1011,1300,2987,,,,
2988,6,117.361794,32.945906,蚌山区,,340303,0552,340303000000,,,蚌山,,,,,,,1300,2,100,1011,1300,2988,,,,
2989,6,117.336687,32.931469,禹会区,,340304,0552,340304000000,,,禹会,,,,,,,1300,2,100,1011,1300,2989,,,,
2990,6,117.353525,32.96714,淮上区,,340311,0552,340311000000,,,淮上,,,,,,,1300,2,100,1011,1300,2990,,,,
2991,6,117.199622,32.971849,怀远县,,340321,0552,340321000000,,,怀远,,,,,,,1300,2,100,1011,1300,2991,,,,
2992,6,117.874099,33.129729,五河县,,340322,0552,340322000000,,,五河,,,,,,,1300,2,100,1011,1300,2992,,,,
2993,6,117.311218,33.318441,固镇县,,340323,0552,340323000000,,,固镇,,,,,,,1300,2,100,1011,1300,2993,,,,
2994,6,117.320266,32.920268,蚌埠市高新技术开发区,,340304,0552,340371000000,,,,,,,,,,1300,2,100,1011,1300,2994,,,,
2995,6,117.369435,32.933217,蚌埠市经济开发区,,340303,0552,340372000000,,,,,,,,,,1300,2,100,1011,1300,2995,,,,
2996,6,117.047648,32.633439,大通区,,340402,0554,340402000000,,,大通,,,,,,,1301,2,100,1011,1301,2996,,,,
2997,6,117.011908,32.649144,田家庵区,,340403,0554,340403000000,,,田家庵,,,,,,,1301,2,100,1011,1301,2997,,,,
2998,6,116.853877,32.602111,谢家集区,,340404,0554,340404000000,,,谢家集,,,,,,,1301,2,100,1011,1301,2998,,,,
2999,6,116.828277,32.633534,八公山区,,340404,0554,340405000000,,,八公山,,,,,,,1301,2,100,1011,1301,2999,,,,
3000,6,116.829492,32.774171,潘集区,,340406,0554,340406000000,,,潘集,,,,,,,1301,2,100,1011,1301,3000,,,,
3001,6,116.705795,32.711491,凤台县,,340421,0554,340421000000,,,凤台,,,,,,,1301,2,100,1011,1301,3001,,,,
3002,6,116.781862,32.575402,寿县,,340422,0554,340422000000,,,,,,,,,,1301,2,100,1011,1301,3002,,,,
3003,6,118.487325,31.721663,花山区,,340503,0555,340503000000,,,花山,,,,,,,1302,2,100,1011,1302,3003,,,,
3004,6,118.493349,31.684176,雨山区,,340504,0555,340504000000,,,雨山,,,,,,,1302,2,100,1011,1302,3004,,,,
3005,6,118.839496,31.560563,博望区,,340506,0555,340506000000,,,博望,,,,,,,1302,2,100,1011,1302,3005,,,,
